{
  "source_url": "https://rootedfare.com/pages/store-locator-1",
  "scraped_at": "2025-10-29T19:38:39.985494",
  "total_stores": 172,
  "stores": [
    {
      "id": 88617726,
      "name": "Agnes Restaurant and Cheesery",
      "latitude": "34.14427799",
      "longitude": "-118.15134203",
      "address_line_1": "40 W Green St",
      "address_line_2": null,
      "city": "Pasadena",
      "state": "CA",
      "postal_code": "91105",
      "country": null,
      "full_address": null,
      "phone": null,
      "website": "https://www.agnesla.com/",
      "email": null,
      "description": null,
      "image_url": null,
      "priority": 0,
      "filters": [
        {
          "id": 28402,
          "name": "Limited-edition flavors",
          "position": 0
        }
      ],
      "custom_fields": [],
      "distance": 2678,
      "distance_units": "mi"
    },
    {
      "id": 15837314,
      "name": "Altamont General Store 82",
      "latitude": "38.40757098",
      "longitude": "-122.94713603",
      "address_line_1": "3703 Main St",
      "address_line_2": null,
      "city": "Occidental",
      "state": "CA",
      "postal_code": "95465",
      "country": "United States",
      "full_address": null,
      "phone": "(707) 874-6053",
      "website": "http://altamontgeneralstore.com",
      "email": null,
      "description": null,
      "image_url": null,
      "priority": 0,
      "filters": [],
      "custom_fields": [],
      "distance": 2086,
      "distance_units": "mi"
    },
    {
      "id": 49353682,
      "name": "Always Hungry Grocery & Goods",
      "latitude": "33.15837599",
      "longitude": "-117.34743797",
      "address_line_1": "505 OAK AVENUE",
      "address_line_2": "Suite B",
      "city": "Carlsbad",
      "state": "CA",
      "postal_code": "92008",
      "country": null,
      "full_address": null,
      "phone": null,
      "website": null,
      "email": null,
      "description": null,
      "image_url": null,
      "priority": 0,
      "filters": [],
      "custom_fields": [],
      "distance": 2676,
      "distance_units": "mi"
    },
    {
      "id": 20959501,
      "name": "Anchor Pantry",
      "latitude": "38.10181101",
      "longitude": "-122.25630200",
      "address_line_1": "620 Marin St",
      "address_line_2": null,
      "city": "Vallejo",
      "state": "CA",
      "postal_code": "94590",
      "country": null,
      "full_address": null,
      "phone": "(707) 704-7413",
      "website": null,
      "email": null,
      "description": null,
      "image_url": null,
      "priority": 0,
      "filters": [],
      "custom_fields": [],
      "distance": 2120,
      "distance_units": "mi"
    },
    {
      "id": 25685683,
      "name": "Atomic Garden",
      "latitude": "37.84128009",
      "longitude": "-122.25150920",
      "address_line_1": "5453 College Ave",
      "address_line_2": null,
      "city": "Oakland",
      "state": "CA",
      "postal_code": "94618",
      "country": null,
      "full_address": null,
      "phone": "(510) 923-0543",
      "website": null,
      "email": null,
      "description": null,
      "image_url": null,
      "priority": 0,
      "filters": [],
      "custom_fields": [],
      "distance": 2136,
      "distance_units": "mi"
    },
    {
      "id": 19812689,
      "name": "Bake Sum",
      "latitude": "37.81253806",
      "longitude": "-122.24733140",
      "address_line_1": "3249 Grand Ave",
      "address_line_2": null,
      "city": "Oakland",
      "state": "CA",
      "postal_code": "94610",
      "country": null,
      "full_address": null,
      "phone": "(415) 506-9298",
      "website": null,
      "email": null,
      "description": null,
      "image_url": null,
      "priority": 0,
      "filters": [],
      "custom_fields": [],
      "distance": 2138,
      "distance_units": "mi"
    },
    {
      "id": 15837316,
      "name": "Bakers & Baristas Superette",
      "latitude": "33.85750100",
      "longitude": "-118.08412100",
      "address_line_1": "11688 South St",
      "address_line_2": "#103",
      "city": "Artesia",
      "state": "CA",
      "postal_code": "90701",
      "country": "United States",
      "full_address": null,
      "phone": "(562) 865-6903",
      "website": null,
      "email": null,
      "description": null,
      "image_url": null,
      "priority": 0,
      "filters": [
        {
          "id": 28402,
          "name": "Limited-edition flavors",
          "position": 0
        }
      ],
      "custom_fields": [],
      "distance": 2324,
      "distance_units": "mi"
    },
    {
      "id": 15837303,
      "name": "Be Bright Coffee",
      "latitude": "34.08375584",
      "longitude": "-118.34911939",
      "address_line_1": "7311 Melrose Ave",
      "address_line_2": null,
      "city": "Los Angeles",
      "state": "CA",
      "postal_code": "90046",
      "country": "United States",
      "full_address": null,
      "phone": "(213) 474-3419",
      "website": null,
      "email": null,
      "description": "Try our Black Sesame Crunchy Butter Latte (seasonal, fall 2023)",
      "image_url": null,
      "priority": 0,
      "filters": [
        {
          "id": 20446,
          "name": "Special Product Collab",
          "position": 0
        },
        {
          "id": 28402,
          "name": "Limited-edition flavors",
          "position": 0
        }
      ],
      "custom_fields": [],
      "distance": 2460,
      "distance_units": "mi"
    },
    {
      "id": 28516700,
      "name": "Bloom San Juan",
      "latitude": "33.50169160",
      "longitude": "-117.66245300",
      "address_line_1": "31760 Old Mission Rd",
      "address_line_2": "a",
      "city": "San Juan Capistrano",
      "state": "CA",
      "postal_code": "92675",
      "country": null,
      "full_address": null,
      "phone": null,
      "website": "http://bloomsanjuancapistrano.com",
      "email": null,
      "description": null,
      "image_url": null,
      "priority": 0,
      "filters": [],
      "custom_fields": [],
      "distance": 2678,
      "distance_units": "mi"
    },
    {
      "id": 19813001,
      "name": "Bristol Farms: La Cumbre (Santa Barbara)",
      "latitude": "34.43842701",
      "longitude": "-119.74952102",
      "address_line_1": "3855 State St.",
      "address_line_2": null,
      "city": "Santa Barbara",
      "state": "CA",
      "postal_code": "93105",
      "country": null,
      "full_address": null,
      "phone": "805-738-7700",
      "website": "https://www.bristolfarms.com/stores/",
      "email": null,
      "description": null,
      "image_url": null,
      "priority": 0,
      "filters": [],
      "custom_fields": [],
      "distance": 2407,
      "distance_units": "mi"
    },
    {
      "id": 19812665,
      "name": "Bristol Farms: Manhattan Beach",
      "latitude": "33.90038599",
      "longitude": "-118.38487199",
      "address_line_1": "1570 Rosecrans Ave.",
      "address_line_2": null,
      "city": "Manhattan Beach",
      "state": "CA",
      "postal_code": "90266",
      "country": null,
      "full_address": null,
      "phone": "(310) 643-5229",
      "website": "https://www.bristolfarms.com/stores/",
      "email": null,
      "description": null,
      "image_url": null,
      "priority": 0,
      "filters": [],
      "custom_fields": [],
      "distance": 2471,
      "distance_units": "mi"
    },
    {
      "id": 19812667,
      "name": "Bristol Farms: Mulholland (Woodland Hills)",
      "latitude": "34.15846298",
      "longitude": "-118.63447200",
      "address_line_1": "23379 Mulholland Dr.",
      "address_line_2": null,
      "city": "Woodland Hills",
      "state": "CA",
      "postal_code": "91364",
      "country": null,
      "full_address": null,
      "phone": "(818) 449-8606",
      "website": "https://www.bristolfarms.com/stores/",
      "email": null,
      "description": null,
      "image_url": null,
      "priority": 0,
      "filters": [],
      "custom_fields": [],
      "distance": 2449,
      "distance_units": "mi"
    },
    {
      "id": 19812671,
      "name": "Bristol Farms: Newport Beach",
      "latitude": "33.60596698",
      "longitude": "-117.87409600",
      "address_line_1": "810 Avocado Ave.",
      "address_line_2": null,
      "city": "Newport Beach",
      "state": "CA",
      "postal_code": "92660",
      "country": null,
      "full_address": null,
      "phone": "(949) 760-6514",
      "website": "https://www.bristolfarms.com/stores/",
      "email": null,
      "description": null,
      "image_url": null,
      "priority": 0,
      "filters": [],
      "custom_fields": [],
      "distance": 2311,
      "distance_units": "mi"
    },
    {
      "id": 19813002,
      "name": "Bristol Farms: Palm Desert",
      "latitude": "33.75695301",
      "longitude": "-116.38926297",
      "address_line_1": "73101 Country Club Dr.",
      "address_line_2": null,
      "city": "Palm Desert",
      "state": "CA",
      "postal_code": "92260",
      "country": null,
      "full_address": null,
      "phone": "(760) 674-0169",
      "website": "https://www.bristolfarms.com/stores/",
      "email": null,
      "description": null,
      "image_url": null,
      "priority": 0,
      "filters": [],
      "custom_fields": [],
      "distance": 2607,
      "distance_units": "mi"
    },
    {
      "id": 19812663,
      "name": "Bristol Farms: Santa Monica",
      "latitude": "34.04033598",
      "longitude": "-118.47271803",
      "address_line_1": "3105 Wilshire Blvd.",
      "address_line_2": null,
      "city": "Santa Monica",
      "state": "CA",
      "postal_code": "90403",
      "country": null,
      "full_address": null,
      "phone": "(310) 829-3137",
      "website": "https://www.bristolfarms.com/stores/",
      "email": null,
      "description": null,
      "image_url": null,
      "priority": 0,
      "filters": [],
      "custom_fields": [],
      "distance": 2460,
      "distance_units": "mi"
    },
    {
      "id": 19812666,
      "name": "Bristol Farms: South Pasadena",
      "latitude": "34.11862501",
      "longitude": "-118.14962097",
      "address_line_1": "606 Fair Oaks Ave.",
      "address_line_2": null,
      "city": "South Pasadena",
      "state": "CA",
      "postal_code": "91030",
      "country": null,
      "full_address": null,
      "phone": "(626) 441-5450",
      "website": "https://www.bristolfarms.com/stores/",
      "email": null,
      "description": null,
      "image_url": null,
      "priority": 0,
      "filters": [],
      "custom_fields": [],
      "distance": 2329,
      "distance_units": "mi"
    },
    {
      "id": 19812659,
      "name": "Bristol Farms: West Hollywood",
      "latitude": "34.07749698",
      "longitude": "-118.38923897",
      "address_line_1": "9039 Beverly Blvd.",
      "address_line_2": null,
      "city": "West Hollywood",
      "state": "CA",
      "postal_code": "90048",
      "country": null,
      "full_address": null,
      "phone": "(310) 248-2804",
      "website": "https://www.bristolfarms.com/stores/",
      "email": null,
      "description": null,
      "image_url": null,
      "priority": 0,
      "filters": [],
      "custom_fields": [],
      "distance": 2460,
      "distance_units": "mi"
    },
    {
      "id": 19812664,
      "name": "Bristol Farms: Westchester",
      "latitude": "33.96122699",
      "longitude": "-118.41967299",
      "address_line_1": "8448 Lincoln Blvd.",
      "address_line_2": null,
      "city": "Los Angeles",
      "state": "CA",
      "postal_code": "90045",
      "country": null,
      "full_address": null,
      "phone": "(310) 410-0593",
      "website": "https://www.bristolfarms.com/stores/",
      "email": null,
      "description": null,
      "image_url": null,
      "priority": 0,
      "filters": [],
      "custom_fields": [],
      "distance": 2466,
      "distance_units": "mi"
    },
    {
      "id": 19812662,
      "name": "Bristol Farms: Westwood",
      "latitude": "34.05348400",
      "longitude": "-118.44059396",
      "address_line_1": "1515 Westwood Blvd.",
      "address_line_2": null,
      "city": "Los Angeles",
      "state": "CA",
      "postal_code": "90024",
      "country": null,
      "full_address": null,
      "phone": "(310) 481-0100",
      "website": "https://www.bristolfarms.com/stores/",
      "email": null,
      "description": null,
      "image_url": null,
      "priority": 0,
      "filters": [],
      "custom_fields": [],
      "distance": 2460,
      "distance_units": "mi"
    },
    {
      "id": 19812670,
      "name": "Bristol Farms: Yorba Linda",
      "latitude": "33.88979901",
      "longitude": "-117.81313802",
      "address_line_1": "18421 Yorba Linda Blvd.",
      "address_line_2": null,
      "city": "Yorba Linda",
      "state": "CA",
      "postal_code": "92886",
      "country": null,
      "full_address": null,
      "phone": "(657) 363-6700",
      "website": "https://www.bristolfarms.com/stores/",
      "email": null,
      "description": null,
      "image_url": null,
      "priority": 0,
      "filters": [],
      "custom_fields": [],
      "distance": 2671,
      "distance_units": "mi"
    },
    {
      "id": 12816081,
      "name": "Broome St. General - Silver Lake",
      "latitude": "34.10817299",
      "longitude": "-118.26855699",
      "address_line_1": "2912 Rowena Ave",
      "address_line_2": null,
      "city": "Los Angeles",
      "state": "CA",
      "postal_code": "90039",
      "country": null,
      "full_address": null,
      "phone": "(323) 570-0405",
      "website": null,
      "email": null,
      "description": null,
      "image_url": null,
      "priority": 0,
      "filters": [],
      "custom_fields": [],
      "distance": 2460,
      "distance_units": "mi"
    },
    {
      "id": 30199031,
      "name": "Cactus Blossom Collective",
      "latitude": "45.66099728",
      "longitude": "-110.56057359",
      "address_line_1": "111 W Callender St",
      "address_line_2": null,
      "city": "Livingston",
      "state": "MT",
      "postal_code": "59047",
      "country": null,
      "full_address": null,
      "phone": "(406) 600-3800",
      "website": null,
      "email": null,
      "description": null,
      "image_url": null,
      "priority": 0,
      "filters": [],
      "custom_fields": [],
      "distance": 1991,
      "distance_units": "mi"
    },
    {
      "id": 15837306,
      "name": "Cameron Marks Boutique",
      "latitude": "36.95906055",
      "longitude": "-122.04852000",
      "address_line_1": "402 Ingalls St",
      "address_line_2": "#21",
      "city": "Santa Cruz",
      "state": "CA",
      "postal_code": "95060",
      "country": "United States",
      "full_address": null,
      "phone": "(831) 458-3080",
      "website": null,
      "email": null,
      "description": null,
      "image_url": null,
      "priority": 0,
      "filters": [],
      "custom_fields": [],
      "distance": 2197,
      "distance_units": "mi"
    },
    {
      "id": 28516697,
      "name": "Carla's Fresh Market",
      "latitude": "34.10658916",
      "longitude": "-118.20340493",
      "address_line_1": "248 N Avenue 50",
      "address_line_2": null,
      "city": "Los Angeles",
      "state": "CA",
      "postal_code": "90042",
      "country": null,
      "full_address": null,
      "phone": "(323) 999-7159",
      "website": "https://www.carlasfreshmarket.com/",
      "email": null,
      "description": null,
      "image_url": null,
      "priority": 0,
      "filters": [],
      "custom_fields": [],
      "distance": 2332,
      "distance_units": "mi"
    },
    {
      "id": 21703638,
      "name": "Cin Cin Goods ",
      "latitude": "48.53387301",
      "longitude": "-123.01694001",
      "address_line_1": "255 Spring St",
      "address_line_2": null,
      "city": "Friday Harbor",
      "state": "WA",
      "postal_code": "98250",
      "country": null,
      "full_address": null,
      "phone": "(360) 530-9463",
      "website": "http://cincingoods.com",
      "email": null,
      "description": null,
      "image_url": null,
      "priority": 0,
      "filters": [],
      "custom_fields": [],
      "distance": 2506,
      "distance_units": "mi"
    },
    {
      "id": 28516707,
      "name": "Clark Street Bakery (Larchmont)",
      "latitude": "34.07418802",
      "longitude": "-118.32395299",
      "address_line_1": "139 1/2 N Larchmont Blvd",
      "address_line_2": null,
      "city": "Los Angeles",
      "state": "CA",
      "postal_code": "90004",
      "country": null,
      "full_address": null,
      "phone": null,
      "website": "https://clarkstreetbakery.com/",
      "email": null,
      "description": null,
      "image_url": null,
      "priority": 0,
      "filters": [],
      "custom_fields": [],
      "distance": 2461,
      "distance_units": "mi"
    },
    {
      "id": 64881434,
      "name": "Coffee MCO",
      "latitude": "34.05216591",
      "longitude": "-118.28748526",
      "address_line_1": "2580 W Olympic Blvd",
      "address_line_2": "Unit #2",
      "city": "Los Angeles",
      "state": "CA",
      "postal_code": "90006",
      "country": null,
      "full_address": null,
      "phone": null,
      "website": null,
      "email": null,
      "description": null,
      "image_url": null,
      "priority": 0,
      "filters": [],
      "custom_fields": [],
      "distance": 2464,
      "distance_units": "mi"
    },
    {
      "id": 25685732,
      "name": "Contimo Provisions",
      "latitude": "38.29794000",
      "longitude": "-122.28738796",
      "address_line_1": "950 Randolph St",
      "address_line_2": null,
      "city": "Napa",
      "state": "CA",
      "postal_code": "94559",
      "country": null,
      "full_address": null,
      "phone": "(707) 782-6424",
      "website": "http://order.contimonapa.com",
      "email": null,
      "description": null,
      "image_url": null,
      "priority": 0,
      "filters": [],
      "custom_fields": [],
      "distance": 2107,
      "distance_units": "mi"
    },
    {
      "id": 12768854,
      "name": "Cookbook Market - Echo Park",
      "latitude": "34.08126402",
      "longitude": "-118.25490598",
      "address_line_1": "1549 Echo Park Ave",
      "address_line_2": null,
      "city": "Los Angeles",
      "state": "California",
      "postal_code": "90026",
      "country": "United States",
      "full_address": null,
      "phone": "(213) 250-1900",
      "website": "http://www.cookbookla.com/",
      "email": "",
      "description": null,
      "image_url": "",
      "priority": 0,
      "filters": [],
      "custom_fields": [],
      "distance": 2462,
      "distance_units": "mi"
    },
    {
      "id": 12768855,
      "name": "Cookbook Market - Highland Park",
      "latitude": "34.10942801",
      "longitude": "-118.19384398",
      "address_line_1": "5611 N Figueroa St",
      "address_line_2": null,
      "city": "Los Angeles",
      "state": "California",
      "postal_code": "90042",
      "country": "United States",
      "full_address": null,
      "phone": "(323) 507-2051",
      "website": "http://www.cookbookla.com/",
      "email": "",
      "description": null,
      "image_url": "",
      "priority": 0,
      "filters": [],
      "custom_fields": [],
      "distance": 2331,
      "distance_units": "mi"
    },
    {
      "id": 28516708,
      "name": "Cookbook Market - Larchmont",
      "latitude": "34.07660301",
      "longitude": "-118.32331002",
      "address_line_1": "310 N Larchmont Blvd",
      "address_line_2": null,
      "city": "Los Angeles",
      "state": "CA",
      "postal_code": "90004",
      "country": null,
      "full_address": null,
      "phone": "(323) 686-9009",
      "website": "https://www.cookbookla.com/",
      "email": null,
      "description": null,
      "image_url": null,
      "priority": 0,
      "filters": [],
      "custom_fields": [],
      "distance": 2461,
      "distance_units": "mi"
    },
    {
      "id": 88612785,
      "name": "Dear John",
      "latitude": "37.79145998",
      "longitude": "-122.19887699",
      "address_line_1": "3807 MacArthur Boulevard",
      "address_line_2": null,
      "city": "Oakland",
      "state": "CA",
      "postal_code": "94619",
      "country": null,
      "full_address": null,
      "phone": null,
      "website": "http:// http://laureloakshop.com/",
      "email": null,
      "description": null,
      "image_url": null,
      "priority": 0,
      "filters": [],
      "custom_fields": [],
      "distance": 2141,
      "distance_units": "mi"
    },
    {
      "id": 49353663,
      "name": "Document Coffee Bar",
      "latitude": "34.06134300",
      "longitude": "-118.31097403",
      "address_line_1": "3850 WILSHIRE BOULEVARD",
      "address_line_2": "#107",
      "city": "Los Angeles",
      "state": "CA",
      "postal_code": "90010",
      "country": null,
      "full_address": null,
      "phone": null,
      "website": null,
      "email": null,
      "description": null,
      "image_url": null,
      "priority": 0,
      "filters": [],
      "custom_fields": [],
      "distance": 2462,
      "distance_units": "mi"
    },
    {
      "id": 49353673,
      "name": "Dover Street Market LA",
      "latitude": "34.03768600",
      "longitude": "-118.23125602",
      "address_line_1": "606-608 Imperial Street",
      "address_line_2": null,
      "city": "Los Angeles",
      "state": "CA",
      "postal_code": "90021",
      "country": null,
      "full_address": null,
      "phone": null,
      "website": null,
      "email": null,
      "description": null,
      "image_url": null,
      "priority": 0,
      "filters": [],
      "custom_fields": [],
      "distance": 2466,
      "distance_units": "mi"
    },
    {
      "id": 18727573,
      "name": "Earthen",
      "latitude": "37.77091502",
      "longitude": "-122.42998299",
      "address_line_1": "136 Fillmore Street",
      "address_line_2": null,
      "city": "San Francisco",
      "state": "CA",
      "postal_code": "94117",
      "country": null,
      "full_address": null,
      "phone": "408-472-1316",
      "website": null,
      "email": null,
      "description": null,
      "image_url": null,
      "priority": 0,
      "filters": [],
      "custom_fields": [],
      "distance": 2137,
      "distance_units": "mi"
    },
    {
      "id": 15837315,
      "name": "Eat's On You",
      "latitude": "33.89575553",
      "longitude": "-117.89481932",
      "address_line_1": "2105 Palmetto Ter.",
      "address_line_2": null,
      "city": "Fullerton",
      "state": "CA",
      "postal_code": "92831",
      "country": "United States",
      "full_address": null,
      "phone": null,
      "website": null,
      "email": null,
      "description": null,
      "image_url": null,
      "priority": 0,
      "filters": [],
      "custom_fields": [],
      "distance": 2675,
      "distance_units": "mi"
    },
    {
      "id": 88617720,
      "name": "En Conordia",
      "latitude": "32.72150181",
      "longitude": "-117.23201478",
      "address_line_1": "3021 Canon Street",
      "address_line_2": null,
      "city": "San Diego",
      "state": "CA",
      "postal_code": "92016",
      "country": null,
      "full_address": null,
      "phone": null,
      "website": "https://shopenconcordia.com/",
      "email": null,
      "description": null,
      "image_url": null,
      "priority": 0,
      "filters": [],
      "custom_fields": [],
      "distance": 2271,
      "distance_units": "mi"
    },
    {
      "id": 20656880,
      "name": "Fatty Mart",
      "latitude": "34.00440201",
      "longitude": "-118.43134797",
      "address_line_1": "12210 Venice Blvd.",
      "address_line_2": null,
      "city": "Los Angeles ",
      "state": "CA",
      "postal_code": "90066",
      "country": null,
      "full_address": null,
      "phone": null,
      "website": null,
      "email": null,
      "description": null,
      "image_url": null,
      "priority": 0,
      "filters": [],
      "custom_fields": [],
      "distance": 2463,
      "distance_units": "mi"
    },
    {
      "id": 42773914,
      "name": "Flouring LA (Cake Shop)",
      "latitude": "34.06517399",
      "longitude": "-118.23810403",
      "address_line_1": "932 N Hill St",
      "address_line_2": null,
      "city": "Los Angeles",
      "state": "CA",
      "postal_code": "90012",
      "country": "USA",
      "full_address": null,
      "phone": "(213) 266-8946",
      "website": "http://flouringla.com",
      "email": null,
      "description": null,
      "image_url": null,
      "priority": 0,
      "filters": [
        {
          "id": 20446,
          "name": "Special Product Collab",
          "position": 0
        }
      ],
      "custom_fields": [],
      "distance": 2464,
      "distance_units": "mi"
    },
    {
      "id": 12768928,
      "name": "Found Coffee",
      "latitude": "34.13980101",
      "longitude": "-118.19457698",
      "address_line_1": "1355 Colorado Blvd",
      "address_line_2": null,
      "city": "Los Angeles",
      "state": "California",
      "postal_code": "90041",
      "country": "United States",
      "full_address": null,
      "phone": "(213) 866-1231",
      "website": "http://www.foundcoffeela.com/",
      "email": null,
      "description": null,
      "image_url": "http://images.squarespace-cdn.com/content/v1/5421d8fbe4b0876b2a6bc49d/1422514845623-UOIA35IU5GHQOMR7B3C2/FoundCoffee_Logo_2in.png?format=1500w",
      "priority": 0,
      "filters": [],
      "custom_fields": [],
      "distance": 2332,
      "distance_units": "mi"
    },
    {
      "id": 49050288,
      "name": "Friends & Family (East Hollywood)",
      "latitude": "34.10153800",
      "longitude": "-118.30239298",
      "address_line_1": "5150 Hollywood Blvd",
      "address_line_2": null,
      "city": "Los Angeles",
      "state": "CA",
      "postal_code": "90027",
      "country": null,
      "full_address": null,
      "phone": null,
      "website": "https://www.friendsandfamilyla.com/",
      "email": null,
      "description": null,
      "image_url": null,
      "priority": 0,
      "filters": [],
      "custom_fields": [],
      "distance": 2460,
      "distance_units": "mi"
    },
    {
      "id": 88618492,
      "name": "Friends & Family (Silverlake)",
      "latitude": "34.09993898",
      "longitude": "-118.25897598",
      "address_line_1": "2388 Glendale Blvd",
      "address_line_2": "Unit B",
      "city": "Los Angeles",
      "state": "CA",
      "postal_code": "90039",
      "country": null,
      "full_address": null,
      "phone": null,
      "website": "https://www.friendsandfamilyla.com/",
      "email": null,
      "description": null,
      "image_url": null,
      "priority": 0,
      "filters": [
        {
          "id": 28402,
          "name": "Limited-edition flavors",
          "position": 0
        }
      ],
      "custom_fields": [],
      "distance": 2461,
      "distance_units": "mi"
    },
    {
      "id": 12768939,
      "name": "Gjusta Grocer",
      "latitude": "33.98806199",
      "longitude": "-118.47217496",
      "address_line_1": "105 Windward Ave",
      "address_line_2": null,
      "city": "Venice",
      "state": "California",
      "postal_code": "90291",
      "country": "United States",
      "full_address": null,
      "phone": "(310) 853-5088",
      "website": "http://www.gjustagrocer.com/",
      "email": "",
      "description": null,
      "image_url": "https://www.gjustagrocer.com/uploads/b/f6683f000fb05936648f9c25342244c1f3364e821cd5b94947a017c824bb0873/GROCER-BRAND%20ASSETS_GROCER-BRAND%20ASSET-WORD%20MARK-01_1653417123.png?width=800",
      "priority": 0,
      "filters": [],
      "custom_fields": [],
      "distance": 2464,
      "distance_units": "mi"
    },
    {
      "id": 49353687,
      "name": "Goodies Snack Shop",
      "latitude": "45.52433400",
      "longitude": "-122.67292701",
      "address_line_1": "139 Northwest 2nd Avenue",
      "address_line_2": null,
      "city": "Portland",
      "state": "OR",
      "postal_code": "97209",
      "country": null,
      "full_address": null,
      "phone": null,
      "website": null,
      "email": null,
      "description": null,
      "image_url": null,
      "priority": 0,
      "filters": [],
      "custom_fields": [],
      "distance": 2553,
      "distance_units": "mi"
    },
    {
      "id": 88612793,
      "name": "Helms Bakery",
      "latitude": "34.03085802",
      "longitude": "-118.38414000",
      "address_line_1": "3220 Helms Ave",
      "address_line_2": null,
      "city": "Los Angeles",
      "state": "CA",
      "postal_code": "90034",
      "country": null,
      "full_address": null,
      "phone": null,
      "website": "https://helmsbakery.la/",
      "email": null,
      "description": null,
      "image_url": null,
      "priority": 0,
      "filters": [],
      "custom_fields": [],
      "distance": 2463,
      "distance_units": "mi"
    },
    {
      "id": 28516693,
      "name": "Howdy Bagel",
      "latitude": "47.20724598",
      "longitude": "-122.48335200",
      "address_line_1": "5421 S Tacoma Way",
      "address_line_2": null,
      "city": "Tacoma",
      "state": "WA",
      "postal_code": "98409",
      "country": null,
      "full_address": null,
      "phone": "(253) 301-1586",
      "website": "https://www.howdybagel.com/",
      "email": null,
      "description": null,
      "image_url": null,
      "priority": 0,
      "filters": [],
      "custom_fields": [],
      "distance": 2508,
      "distance_units": "mi"
    },
    {
      "id": 49353688,
      "name": "Joan's on Third",
      "latitude": "34.07264998",
      "longitude": "-118.37174602",
      "address_line_1": "8350 West 3rd Street",
      "address_line_2": null,
      "city": "Los Angeles",
      "state": "CA",
      "postal_code": "90048",
      "country": null,
      "full_address": null,
      "phone": null,
      "website": null,
      "email": null,
      "description": null,
      "image_url": null,
      "priority": 0,
      "filters": [],
      "custom_fields": [],
      "distance": 2460,
      "distance_units": "mi"
    },
    {
      "id": 88612814,
      "name": "Kemi Dessert Bar",
      "latitude": "47.61846500",
      "longitude": "-122.31655598",
      "address_line_1": "1828 12th Ave",
      "address_line_2": "Suite B",
      "city": "Seattle",
      "state": "WA",
      "postal_code": "98122",
      "country": null,
      "full_address": null,
      "phone": null,
      "website": "https://www.kemidessertbar.com/",
      "email": null,
      "description": null,
      "image_url": null,
      "priority": 0,
      "filters": [],
      "custom_fields": [],
      "distance": 2492,
      "distance_units": "mi"
    },
    {
      "id": 88612800,
      "name": "Kindess & Mischief Coffee",
      "latitude": "34.10898402",
      "longitude": "-118.19471402",
      "address_line_1": "5537 North Figueroa Street",
      "address_line_2": null,
      "city": "Los Angeles",
      "state": "CA",
      "postal_code": "90042",
      "country": null,
      "full_address": null,
      "phone": null,
      "website": "http://www.kandmcoffee.com/",
      "email": null,
      "description": null,
      "image_url": null,
      "priority": 0,
      "filters": [],
      "custom_fields": [],
      "distance": 2332,
      "distance_units": "mi"
    },
    {
      "id": 25685734,
      "name": "Kustaa Cheese and Wine",
      "latitude": "33.99452301",
      "longitude": "-118.43906502",
      "address_line_1": "12954 Washington Blvd",
      "address_line_2": null,
      "city": "Los Angeles",
      "state": "CA ",
      "postal_code": "90066",
      "country": null,
      "full_address": null,
      "phone": "(424) 289-9167",
      "website": "http://kustaa.la",
      "email": null,
      "description": null,
      "image_url": null,
      "priority": 0,
      "filters": [],
      "custom_fields": [],
      "distance": 2464,
      "distance_units": "mi"
    },
    {
      "id": 28516695,
      "name": "Kyucafe",
      "latitude": "34.03973102",
      "longitude": "-118.30608001",
      "address_line_1": "2100 W Washington Blvd",
      "address_line_2": "#1",
      "city": "Los Angeles",
      "state": "CA",
      "postal_code": "90018",
      "country": null,
      "full_address": null,
      "phone": "(323) 402-0390",
      "website": "http://kyucafe.com",
      "email": null,
      "description": null,
      "image_url": null,
      "priority": 0,
      "filters": [],
      "custom_fields": [],
      "distance": 2464,
      "distance_units": "mi"
    },
    {
      "id": 25685686,
      "name": "LA Homefarm",
      "latitude": "34.11448900",
      "longitude": "-118.23644802",
      "address_line_1": "3389 Eagle Rock Blvd",
      "address_line_2": null,
      "city": "Los Angeles",
      "state": "CA",
      "postal_code": "90065",
      "country": null,
      "full_address": null,
      "phone": "(323) 474-6323",
      "website": null,
      "email": null,
      "description": null,
      "image_url": null,
      "priority": 0,
      "filters": [],
      "custom_fields": [],
      "distance": 2461,
      "distance_units": "mi"
    },
    {
      "id": 88612806,
      "name": "LanSu Chinese Garden",
      "latitude": "45.52574400",
      "longitude": "-122.67323999",
      "address_line_1": "239 NW Everett Street",
      "address_line_2": null,
      "city": "Portland",
      "state": "OR",
      "postal_code": "97209",
      "country": null,
      "full_address": null,
      "phone": null,
      "website": "https://lansugarden.org/",
      "email": null,
      "description": null,
      "image_url": null,
      "priority": 0,
      "filters": [
        {
          "id": 28402,
          "name": "Limited-edition flavors",
          "position": 0
        }
      ],
      "custom_fields": [],
      "distance": 2553,
      "distance_units": "mi"
    },
    {
      "id": 19812686,
      "name": "Le March√© Cezanne",
      "latitude": "37.76266299",
      "longitude": "-122.39720397",
      "address_line_1": "1426 18th St",
      "address_line_2": null,
      "city": "San Francisco",
      "state": "CA",
      "postal_code": "94107",
      "country": null,
      "full_address": null,
      "phone": "(415) 316-4448",
      "website": null,
      "email": null,
      "description": null,
      "image_url": null,
      "priority": 0,
      "filters": [],
      "custom_fields": [],
      "distance": 2138,
      "distance_units": "mi"
    },
    {
      "id": 18727580,
      "name": "Little Tokyo Market Place",
      "latitude": "34.04476599",
      "longitude": "-118.23914297",
      "address_line_1": "333 S Alameda St",
      "address_line_2": "Ste 100",
      "city": "Los Angeles",
      "state": "CA",
      "postal_code": "90013",
      "country": null,
      "full_address": null,
      "phone": "213-617-0030",
      "website": "http://www.littletokyomarket.com/",
      "email": null,
      "description": null,
      "image_url": null,
      "priority": 0,
      "filters": [],
      "custom_fields": [],
      "distance": 2465,
      "distance_units": "mi"
    },
    {
      "id": 64881435,
      "name": "Mad Rock HQ",
      "latitude": "33.93480388",
      "longitude": "-118.05867431",
      "address_line_1": "12810 E Florence Ave",
      "address_line_2": null,
      "city": "Santa Fe Springs",
      "state": "CA",
      "postal_code": "90670",
      "country": null,
      "full_address": null,
      "phone": null,
      "website": null,
      "email": null,
      "description": null,
      "image_url": null,
      "priority": 0,
      "filters": [],
      "custom_fields": [],
      "distance": 2323,
      "distance_units": "mi"
    },
    {
      "id": 12768857,
      "name": "Milkfarm LA",
      "latitude": "34.13890301",
      "longitude": "-118.21231401",
      "address_line_1": "2106 Colorado Blvd",
      "address_line_2": null,
      "city": "Los Angeles",
      "state": "California",
      "postal_code": "90041",
      "country": "United States",
      "full_address": null,
      "phone": "(323) 892-1068",
      "website": "http://www.milkfarmla.com/",
      "email": "",
      "description": null,
      "image_url": "http://milkfarmla.com/wp-content/uploads/2014/03/milkfarmla_horizontallogo.png",
      "priority": 0,
      "filters": [],
      "custom_fields": [],
      "distance": 2460,
      "distance_units": "mi"
    },
    {
      "id": 49353671,
      "name": "Minik Market",
      "latitude": "34.18898698",
      "longitude": "-118.13168102",
      "address_line_1": "2507 Lake Ave",
      "address_line_2": null,
      "city": "Altadena",
      "state": "CA",
      "postal_code": "91001",
      "country": null,
      "full_address": null,
      "phone": null,
      "website": null,
      "email": null,
      "description": null,
      "image_url": null,
      "priority": 0,
      "filters": [],
      "custom_fields": [],
      "distance": 2676,
      "distance_units": "mi"
    },
    {
      "id": 54503478,
      "name": "Mixed Pantry",
      "latitude": "47.61305901",
      "longitude": "-122.34658297",
      "address_line_1": "2233 1st Ave",
      "address_line_2": null,
      "city": "Seattle",
      "state": "WA",
      "postal_code": "98121",
      "country": null,
      "full_address": null,
      "phone": null,
      "website": null,
      "email": null,
      "description": null,
      "image_url": null,
      "priority": 0,
      "filters": [
        {
          "id": 28402,
          "name": "Limited-edition flavors",
          "position": 0
        }
      ],
      "custom_fields": [],
      "distance": 2494,
      "distance_units": "mi"
    },
    {
      "id": 12768656,
      "name": "Now Serving",
      "latitude": "34.06140901",
      "longitude": "-118.23952099",
      "address_line_1": "727 N Broadway ",
      "address_line_2": "#133",
      "city": "Los Angeles",
      "state": "California",
      "postal_code": "90012",
      "country": "United States",
      "full_address": null,
      "phone": "(213) 395-0627",
      "website": "https://www.nowservingla.com/",
      "email": "",
      "description": null,
      "image_url": "https://cdn.shopify.com/s/files/1/0051/1954/1312/files/NS_WORDMARKoxblood_800x87.gif?v=1567056025",
      "priority": 0,
      "filters": [],
      "custom_fields": [],
      "distance": 2464,
      "distance_units": "mi"
    },
    {
      "id": 49050314,
      "name": "Of All Places Market",
      "latitude": "37.89162201",
      "longitude": "-122.27888201",
      "address_line_1": "1841 Solano Ave",
      "address_line_2": null,
      "city": "Berkeley",
      "state": "CA",
      "postal_code": "94707",
      "country": null,
      "full_address": null,
      "phone": null,
      "website": null,
      "email": null,
      "description": null,
      "image_url": null,
      "priority": 0,
      "filters": [],
      "custom_fields": [],
      "distance": 2133,
      "distance_units": "mi"
    },
    {
      "id": 21703643,
      "name": "Omo Mercado",
      "latitude": "34.09978728",
      "longitude": "-117.64770348",
      "address_line_1": "259B E Arrow Hwy",
      "address_line_2": "",
      "city": "Upland",
      "state": "CA",
      "postal_code": "91786",
      "country": null,
      "full_address": null,
      "phone": "(909) 303-3030",
      "website": null,
      "email": null,
      "description": null,
      "image_url": null,
      "priority": 0,
      "filters": [],
      "custom_fields": [],
      "distance": 2656,
      "distance_units": "mi"
    },
    {
      "id": 49353683,
      "name": "On Waverly",
      "latitude": "37.79494199",
      "longitude": "-122.40684601",
      "address_line_1": "162 Waverly Place",
      "address_line_2": null,
      "city": "San Francisco",
      "state": "CA",
      "postal_code": "94102",
      "country": null,
      "full_address": null,
      "phone": null,
      "website": null,
      "email": null,
      "description": null,
      "image_url": null,
      "priority": 0,
      "filters": [],
      "custom_fields": [],
      "distance": 2136,
      "distance_units": "mi"
    },
    {
      "id": 12768856,
      "name": "Open Market",
      "latitude": "34.06181734",
      "longitude": "-118.29571609",
      "address_line_1": "3339 Wilshire Blvd",
      "address_line_2": null,
      "city": "Los Angeles",
      "state": "CA",
      "postal_code": "90010",
      "country": "United States",
      "full_address": null,
      "phone": "(213)232-3851",
      "website": "https://openmarket.la/",
      "email": null,
      "description": "Try the Black Sesame Latte iced or hot, made with Black Sesame Crunchy Butter.",
      "image_url": null,
      "priority": 0,
      "filters": [
        {
          "id": 28402,
          "name": "Limited-edition flavors",
          "position": 0
        }
      ],
      "custom_fields": [],
      "distance": 2463,
      "distance_units": "mi"
    },
    {
      "id": 88617725,
      "name": "Pepperjack Provisions",
      "latitude": "37.76524998",
      "longitude": "-122.46615602",
      "address_line_1": "1232 9TH AVE",
      "address_line_2": null,
      "city": "San Francisco",
      "state": "CA",
      "postal_code": "94122",
      "country": null,
      "full_address": null,
      "phone": null,
      "website": "https://pepperjackprovisions.com/",
      "email": null,
      "description": null,
      "image_url": null,
      "priority": 0,
      "filters": [],
      "custom_fields": [],
      "distance": 2137,
      "distance_units": "mi"
    },
    {
      "id": 28516704,
      "name": "Pine and Crane DTLA",
      "latitude": "34.04051200",
      "longitude": "-118.26243401",
      "address_line_1": "1120 S Grand Ave",
      "address_line_2": " Suite 101",
      "city": "Los Angeles",
      "state": "CA",
      "postal_code": "90015",
      "country": null,
      "full_address": null,
      "phone": "(213) 536-5292",
      "website": "https://www.pineandcrane.com/dtla",
      "email": null,
      "description": null,
      "image_url": null,
      "priority": 0,
      "filters": [],
      "custom_fields": [],
      "distance": 2465,
      "distance_units": "mi"
    },
    {
      "id": 88612780,
      "name": "Potluck Local",
      "latitude": "34.12269869",
      "longitude": "-118.21300018",
      "address_line_1": "4705 York Blvd",
      "address_line_2": null,
      "city": "Los Angeles",
      "state": null,
      "postal_code": "90042",
      "country": null,
      "full_address": null,
      "phone": null,
      "website": "https://potlucklocal.com/",
      "email": null,
      "description": null,
      "image_url": null,
      "priority": 0,
      "filters": [],
      "custom_fields": [],
      "distance": 2333,
      "distance_units": "mi"
    },
    {
      "id": 12768969,
      "name": "Providore Fine Foods",
      "latitude": "45.52712299",
      "longitude": "-122.64170903",
      "address_line_1": "2340 NE Sandy Blvd",
      "address_line_2": null,
      "city": "Portland",
      "state": "OR",
      "postal_code": "97232",
      "country": "United States",
      "full_address": null,
      "phone": "(503) 232-1010",
      "website": "http://www.providorefinefoods.com/",
      "email": "",
      "description": null,
      "image_url": "https://cdn.shopify.com/s/files/1/0543/1413/9839/files/PROVIDORE_LOGO_Outline_Transparent_320x.png?v=1615352989",
      "priority": 0,
      "filters": [],
      "custom_fields": [],
      "distance": 2552,
      "distance_units": "mi"
    },
    {
      "id": 88616990,
      "name": "Provisions Market Hall",
      "latitude": "44.05399802",
      "longitude": "-123.08848601",
      "address_line_1": "296 East 5th Ave.",
      "address_line_2": "Suite 101/102",
      "city": "Eugene",
      "state": "OR",
      "postal_code": "97401",
      "country": null,
      "full_address": null,
      "phone": null,
      "website": "https://provisionsmarkethall.com/",
      "email": null,
      "description": null,
      "image_url": null,
      "priority": 0,
      "filters": [],
      "custom_fields": [],
      "distance": 2608,
      "distance_units": "mi"
    },
    {
      "id": 28516685,
      "name": "Regent Coffee Roasters",
      "latitude": "34.14976299",
      "longitude": "-118.25546899",
      "address_line_1": "249 N Brand Blvd",
      "address_line_2": null,
      "city": "Glendale",
      "state": "CA",
      "postal_code": "91203",
      "country": null,
      "full_address": null,
      "phone": "(818) 484-7528",
      "website": "http://regentcoffee.com",
      "email": null,
      "description": null,
      "image_url": null,
      "priority": 0,
      "filters": [],
      "custom_fields": [],
      "distance": 2458,
      "distance_units": "mi"
    },
    {
      "id": 20959502,
      "name": "Sage Sisters",
      "latitude": "32.74816800",
      "longitude": "-117.12945803",
      "address_line_1": "3013 University Ave",
      "address_line_2": null,
      "city": "San Diego",
      "state": "CA",
      "postal_code": "92104",
      "country": null,
      "full_address": null,
      "phone": "(619) 214-0079",
      "website": null,
      "email": null,
      "description": null,
      "image_url": null,
      "priority": 0,
      "filters": [],
      "custom_fields": [],
      "distance": 2265,
      "distance_units": "mi"
    },
    {
      "id": 12816088,
      "name": "Sebastian's Seafood and Specialty Market",
      "latitude": "44.05911368",
      "longitude": "-121.35693965",
      "address_line_1": "921 Northwest Mount Washington Dr",
      "address_line_2": "Unit 150",
      "city": "Bend",
      "state": "OR",
      "postal_code": "97703",
      "country": null,
      "full_address": null,
      "phone": "(541) 699-7200",
      "website": null,
      "email": null,
      "description": null,
      "image_url": null,
      "priority": 0,
      "filters": [],
      "custom_fields": [],
      "distance": 2528,
      "distance_units": "mi"
    },
    {
      "id": 17744531,
      "name": "Seu Flowers",
      "latitude": "47.62429499",
      "longitude": "-122.29454099",
      "address_line_1": "2921 E Madison St",
      "address_line_2": null,
      "city": "Seattle",
      "state": "WA",
      "postal_code": "98112",
      "country": null,
      "full_address": null,
      "phone": null,
      "website": null,
      "email": null,
      "description": null,
      "image_url": null,
      "priority": 0,
      "filters": [],
      "custom_fields": [],
      "distance": 2491,
      "distance_units": "mi"
    },
    {
      "id": 15837310,
      "name": "Seven Sisters",
      "latitude": "45.52317459",
      "longitude": "-122.65742010",
      "address_line_1": "811 East Burnside Street",
      "address_line_2": "Suite 114",
      "city": "Portland",
      "state": "OR",
      "postal_code": "97214",
      "country": "United States",
      "full_address": null,
      "phone": null,
      "website": "https://sevensisterspdx.com/",
      "email": null,
      "description": null,
      "image_url": null,
      "priority": 0,
      "filters": [],
      "custom_fields": [],
      "distance": 2553,
      "distance_units": "mi"
    },
    {
      "id": 28516683,
      "name": "Sua Superette",
      "latitude": "34.07413299",
      "longitude": "-118.32338302",
      "address_line_1": "144 North Larchmont Boulevard",
      "address_line_2": null,
      "city": "Los Angeles",
      "state": "CA",
      "postal_code": "90004",
      "country": null,
      "full_address": null,
      "phone": "(323) 498-0044",
      "website": null,
      "email": null,
      "description": null,
      "image_url": null,
      "priority": 0,
      "filters": [],
      "custom_fields": [],
      "distance": 2461,
      "distance_units": "mi"
    },
    {
      "id": 88612811,
      "name": "Superette Market",
      "latitude": "38.55015763",
      "longitude": "-121.50616525",
      "address_line_1": "3216 Riverside Blvd",
      "address_line_2": null,
      "city": "Sacramento",
      "state": "CA",
      "postal_code": "95818",
      "country": null,
      "full_address": null,
      "phone": null,
      "website": "https://www.superettemarket.com/",
      "email": null,
      "description": null,
      "image_url": null,
      "priority": 0,
      "filters": [],
      "custom_fields": [],
      "distance": 2107,
      "distance_units": "mi"
    },
    {
      "id": 25685733,
      "name": "Surfas Culinary District",
      "latitude": "34.04024998",
      "longitude": "-118.31964201",
      "address_line_1": "3225 W Washington Blvd",
      "address_line_2": null,
      "city": "Los Angeles",
      "state": "CA",
      "postal_code": "90018",
      "country": null,
      "full_address": null,
      "phone": "(310) 559-4770",
      "website": null,
      "email": null,
      "description": null,
      "image_url": null,
      "priority": 0,
      "filters": [],
      "custom_fields": [],
      "distance": 2464,
      "distance_units": "mi"
    },
    {
      "id": 49353670,
      "name": "SWHM BEAUTY",
      "latitude": "34.86142381",
      "longitude": "-111.81549772",
      "address_line_1": "3150 West State Route 89A",
      "address_line_2": "Suite 6",
      "city": "Sedona",
      "state": "AZ",
      "postal_code": "86336",
      "country": null,
      "full_address": null,
      "phone": null,
      "website": null,
      "email": null,
      "description": null,
      "image_url": null,
      "priority": 0,
      "filters": [],
      "custom_fields": [],
      "distance": 2345,
      "distance_units": "mi"
    },
    {
      "id": 88618487,
      "name": "Tan Tan Cafe & Delicatessen",
      "latitude": "45.48780202",
      "longitude": "-122.80688399",
      "address_line_1": "12675 SW Broadway Street",
      "address_line_2": null,
      "city": "Beaverton",
      "state": "OR",
      "postal_code": "97005",
      "country": null,
      "full_address": null,
      "phone": null,
      "website": "https://www.instagram.com/tantanfoods/",
      "email": null,
      "description": null,
      "image_url": null,
      "priority": 0,
      "filters": [
        {
          "id": 28402,
          "name": "Limited-edition flavors",
          "position": 0
        }
      ],
      "custom_fields": [],
      "distance": 2560,
      "distance_units": "mi"
    },
    {
      "id": 13595855,
      "name": "Tea on Piedmont",
      "latitude": "37.82642798",
      "longitude": "-122.25201499",
      "address_line_1": "4098 Piedmont Ave",
      "address_line_2": null,
      "city": "Oakland",
      "state": "CA",
      "postal_code": "94611",
      "country": "USA",
      "full_address": null,
      "phone": null,
      "website": null,
      "email": null,
      "description": null,
      "image_url": null,
      "priority": 0,
      "filters": [],
      "custom_fields": [],
      "distance": 2137,
      "distance_units": "mi"
    },
    {
      "id": 88618494,
      "name": "The Cakery",
      "latitude": "32.96368286",
      "longitude": "-117.18756964",
      "address_line_1": "6142 Village Way",
      "address_line_2": null,
      "city": "San Diego",
      "state": "CA",
      "postal_code": "92130",
      "country": null,
      "full_address": null,
      "phone": null,
      "website": "https://www.thecakerysd.com/",
      "email": null,
      "description": null,
      "image_url": null,
      "priority": 0,
      "filters": [],
      "custom_fields": [],
      "distance": 2675,
      "distance_units": "mi"
    },
    {
      "id": 49050287,
      "name": "The Eddy",
      "latitude": "34.42190599",
      "longitude": "-119.69747200",
      "address_line_1": "137 E De La Guerra St",
      "address_line_2": null,
      "city": "Santa Barbara",
      "state": "CA",
      "postal_code": "93101",
      "country": null,
      "full_address": null,
      "phone": null,
      "website": null,
      "email": null,
      "description": null,
      "image_url": null,
      "priority": 0,
      "filters": [
        {
          "id": 28402,
          "name": "Limited-edition flavors",
          "position": 0
        }
      ],
      "custom_fields": [],
      "distance": 2409,
      "distance_units": "mi"
    },
    {
      "id": 49353681,
      "name": "The Epicurean Trader",
      "latitude": "37.77712000",
      "longitude": "-122.41966000",
      "address_line_1": "",
      "address_line_2": "",
      "city": "San Francisco",
      "state": "",
      "postal_code": "",
      "country": null,
      "full_address": null,
      "phone": null,
      "website": null,
      "email": null,
      "description": null,
      "image_url": null,
      "priority": 0,
      "filters": [],
      "custom_fields": [],
      "distance": 2137,
      "distance_units": "mi"
    },
    {
      "id": 88612802,
      "name": "The Marine Room",
      "latitude": "32.85194117",
      "longitude": "-117.26078865",
      "address_line_1": "1950 Spindrift Drive",
      "address_line_2": null,
      "city": "La Jolla",
      "state": "CA",
      "postal_code": "92037",
      "country": null,
      "full_address": null,
      "phone": null,
      "website": "https://www.marineroom.com/",
      "email": null,
      "description": null,
      "image_url": null,
      "priority": 0,
      "filters": [],
      "custom_fields": [],
      "distance": 2273,
      "distance_units": "mi"
    },
    {
      "id": 15837311,
      "name": "The Mixing Glass",
      "latitude": "33.67415517",
      "longitude": "-117.92021932",
      "address_line_1": "1500 Adams Ave #104a",
      "address_line_2": "#104a",
      "city": "Costa Mesa",
      "state": "CA",
      "postal_code": "92626",
      "country": "United States",
      "full_address": null,
      "phone": "(714) 975-9952",
      "website": null,
      "email": null,
      "description": null,
      "image_url": null,
      "priority": 0,
      "filters": [],
      "custom_fields": [],
      "distance": 2314,
      "distance_units": "mi"
    },
    {
      "id": 28516688,
      "name": "The Seafood Shop Gourmet & Charcuterie",
      "latitude": "34.15937900",
      "longitude": "-118.37166597",
      "address_line_1": "4873 Lankershim Blvd",
      "address_line_2": null,
      "city": "Los Angeles",
      "state": "CA",
      "postal_code": "91601",
      "country": null,
      "full_address": null,
      "phone": "(747) 203-8123",
      "website": "https://www.theseafoodshop.org/",
      "email": null,
      "description": null,
      "image_url": null,
      "priority": 0,
      "filters": [],
      "custom_fields": [],
      "distance": 2455,
      "distance_units": "mi"
    },
    {
      "id": 88612789,
      "name": "Three Cats Coffee",
      "latitude": "47.75351598",
      "longitude": "-122.16154601",
      "address_line_1": "17410 133rd Ave NE",
      "address_line_2": "Ste 101",
      "city": "Woodinville",
      "state": "WA",
      "postal_code": "98072",
      "country": null,
      "full_address": null,
      "phone": null,
      "website": "http://threecatscoffee.com/",
      "email": null,
      "description": null,
      "image_url": null,
      "priority": 0,
      "filters": [],
      "custom_fields": [],
      "distance": 2483,
      "distance_units": "mi"
    },
    {
      "id": 68762226,
      "name": "Valerie Confections",
      "latitude": "34.17460498",
      "longitude": "-118.29507130",
      "address_line_1": "1936 W Glenoaks Blvd",
      "address_line_2": null,
      "city": "Glendale",
      "state": "CA",
      "postal_code": "91201",
      "country": null,
      "full_address": null,
      "phone": null,
      "website": null,
      "email": null,
      "description": null,
      "image_url": null,
      "priority": 0,
      "filters": [
        {
          "id": 20446,
          "name": "Special Product Collab",
          "position": 0
        }
      ],
      "custom_fields": [],
      "distance": 2456,
      "distance_units": "mi"
    },
    {
      "id": 20959499,
      "name": "Volunteer Park Cafe & Pantry",
      "latitude": "47.63244501",
      "longitude": "-122.31014801",
      "address_line_1": "1501 17th Ave E",
      "address_line_2": null,
      "city": "Seattle",
      "state": "WA",
      "postal_code": " 98112",
      "country": null,
      "full_address": null,
      "phone": "(206) 822-6566",
      "website": "http://volunteerparkcafeandpantry.square.site",
      "email": null,
      "description": null,
      "image_url": null,
      "priority": 0,
      "filters": [],
      "custom_fields": [],
      "distance": 2492,
      "distance_units": "mi"
    },
    {
      "id": 19812685,
      "name": "Windrose Provisions",
      "latitude": "34.11629378",
      "longitude": "-118.13840821",
      "address_line_1": "2571 Mission St",
      "address_line_2": null,
      "city": "San Marino",
      "state": "CA",
      "postal_code": "91108",
      "country": null,
      "full_address": null,
      "phone": null,
      "website": null,
      "email": null,
      "description": null,
      "image_url": null,
      "priority": 0,
      "filters": [],
      "custom_fields": [],
      "distance": 2679,
      "distance_units": "mi"
    },
    {
      "id": 49353684,
      "name": "Wine and Eggs",
      "latitude": "34.11680702",
      "longitude": "-118.26261003",
      "address_line_1": "3129 1/2 Glendale Boulevard",
      "address_line_2": null,
      "city": "Los Angeles",
      "state": "CA",
      "postal_code": "90039",
      "country": null,
      "full_address": null,
      "phone": null,
      "website": null,
      "email": null,
      "description": null,
      "image_url": null,
      "priority": 0,
      "filters": [],
      "custom_fields": [],
      "distance": 2460,
      "distance_units": "mi"
    },
    {
      "id": 25686173,
      "name": "Winnie Superette",
      "latitude": "39.26274000",
      "longitude": "-121.01916000",
      "address_line_1": "315 Commercial St",
      "address_line_2": null,
      "city": "Nevada City",
      "state": "CA",
      "postal_code": "95959",
      "country": null,
      "full_address": null,
      "phone": null,
      "website": null,
      "email": null,
      "description": null,
      "image_url": null,
      "priority": 0,
      "filters": [
        {
          "id": 28402,
          "name": "Limited-edition flavors",
          "position": 0
        }
      ],
      "custom_fields": [],
      "distance": 2645,
      "distance_units": "mi"
    },
    {
      "id": 88618491,
      "name": "Woodcat Coffee",
      "latitude": "34.07613555",
      "longitude": "-118.25640198",
      "address_line_1": "1532 W Sunset Blvd",
      "address_line_2": null,
      "city": "Los Angeles",
      "state": "CA",
      "postal_code": "90026",
      "country": null,
      "full_address": null,
      "phone": null,
      "website": "https://www.instagram.com/woodcatcoffee/?hl=en",
      "email": null,
      "description": null,
      "image_url": null,
      "priority": 0,
      "filters": [],
      "custom_fields": [],
      "distance": 2463,
      "distance_units": "mi"
    },
    {
      "id": 65090778,
      "name": "Woon (Filipinotown)",
      "latitude": "34.07418688",
      "longitude": "-118.27934618",
      "address_line_1": "2920 W Temple St.",
      "address_line_2": null,
      "city": "Los Angeles",
      "state": "CA",
      "postal_code": "90026",
      "country": null,
      "full_address": null,
      "phone": null,
      "website": null,
      "email": null,
      "description": "Only carries our collab Seaweed Sesame Cashew Butter (limited-edition)",
      "image_url": null,
      "priority": 0,
      "filters": [
        {
          "id": 28402,
          "name": "Limited-edition flavors",
          "position": 0
        }
      ],
      "custom_fields": [],
      "distance": 2462,
      "distance_units": "mi"
    },
    {
      "id": 65090779,
      "name": "Woon (Pasadena)",
      "latitude": "34.16886606",
      "longitude": "-118.12187754",
      "address_line_1": "1392 E Washington Blvd",
      "address_line_2": null,
      "city": "Pasadena",
      "state": "CA",
      "postal_code": "91104",
      "country": null,
      "full_address": null,
      "phone": null,
      "website": null,
      "email": null,
      "description": "Only carries our collab Seaweed Sesame Cashew Butter (limited-edition)",
      "image_url": null,
      "priority": 0,
      "filters": [
        {
          "id": 28402,
          "name": "Limited-edition flavors",
          "position": 0
        }
      ],
      "custom_fields": [],
      "distance": 2676,
      "distance_units": "mi"
    },
    {
      "id": 15837304,
      "name": "Yama Seafood",
      "latitude": "34.10215587",
      "longitude": "-118.11261935",
      "address_line_1": "911 W Las Tunas Dr",
      "address_line_2": null,
      "city": "San Gabriel",
      "state": "CA",
      "postal_code": "91775",
      "country": "United States",
      "full_address": null,
      "phone": "(626) 281-8045",
      "website": null,
      "email": null,
      "description": null,
      "image_url": null,
      "priority": 0,
      "filters": [],
      "custom_fields": [],
      "distance": 2678,
      "distance_units": "mi"
    },
    {
      "id": 26286010,
      "name": "Yang's Kitchen",
      "latitude": "34.09426402",
      "longitude": "-118.12813799",
      "address_line_1": "112 W Main St",
      "address_line_2": null,
      "city": "Alhambra",
      "state": "CA",
      "postal_code": "91801",
      "country": null,
      "full_address": null,
      "phone": "(626) 281-1035",
      "website": "https://order.toasttab.com/online/yangs-kitchen",
      "email": null,
      "description": "Order the soft serve with Black Sesame Crunchy Butter as a topping -- you'll thank us later! ",
      "image_url": null,
      "priority": 0,
      "filters": [
        {
          "id": 20446,
          "name": "Special Product Collab",
          "position": 0
        }
      ],
      "custom_fields": [],
      "distance": 2328,
      "distance_units": "mi"
    },
    {
      "id": 12768931,
      "name": "Yoboseyo! Superette",
      "latitude": "34.04823411",
      "longitude": "-118.24020095",
      "address_line_1": "358 E 2nd St",
      "address_line_2": null,
      "city": "Los Angeles",
      "state": "California",
      "postal_code": "90012",
      "country": "United States",
      "full_address": null,
      "phone": null,
      "website": "https://www.instagram.com/ybsy_superette/?hl=en",
      "email": null,
      "description": null,
      "image_url": null,
      "priority": 0,
      "filters": [],
      "custom_fields": [],
      "distance": 2465,
      "distance_units": "mi"
    },
    {
      "id": 54503474,
      "name": "Yoboseyo! Superette (USC Village)",
      "latitude": "34.02404952",
      "longitude": "-118.28453198",
      "address_line_1": "835 W Jefferson Blvd",
      "address_line_2": "#1715",
      "city": "Los Angeles",
      "state": "CA",
      "postal_code": "90007",
      "country": null,
      "full_address": null,
      "phone": null,
      "website": null,
      "email": null,
      "description": null,
      "image_url": null,
      "priority": 0,
      "filters": [
        {
          "id": 28402,
          "name": "Limited-edition flavors",
          "position": 0
        }
      ],
      "custom_fields": [],
      "distance": 2465,
      "distance_units": "mi"
    },
    {
      "id": 88612804,
      "name": "Zest Billings",
      "latitude": "45.78176165",
      "longitude": "-108.50742238",
      "address_line_1": "110 N 29th Street",
      "address_line_2": null,
      "city": "Billings",
      "state": "MT",
      "postal_code": "59101",
      "country": null,
      "full_address": null,
      "phone": null,
      "website": "https://zestbillings.com/",
      "email": null,
      "description": null,
      "image_url": null,
      "priority": 0,
      "filters": [
        {
          "id": 28402,
          "name": "Limited-edition flavors",
          "position": 0
        }
      ],
      "custom_fields": [],
      "distance": 1892,
      "distance_units": "mi"
    },
    {
      "id": 12768943,
      "name": "Home Ec",
      "latitude": "32.72918001",
      "longitude": "-117.17035401",
      "address_line_1": "2355 India St",
      "address_line_2": null,
      "city": "San Diego",
      "state": "California",
      "postal_code": "92101",
      "country": "United States",
      "full_address": null,
      "phone": "(619) 940-5657",
      "website": "http://www.home-ec.co/",
      "email": "",
      "description": null,
      "image_url": "https://cdn.shopify.com/s/files/1/0224/2340/4608/files/Drawn_Logo_250x.png?v=1652560771",
      "priority": 0,
      "filters": [],
      "custom_fields": [],
      "distance": 2267,
      "distance_units": "mi"
    },
    {
      "id": 17744535,
      "name": "Recital",
      "latitude": "39.75979098",
      "longitude": "-104.98498700",
      "address_line_1": "1362 27th Street",
      "address_line_2": null,
      "city": "Denver",
      "state": "CO",
      "postal_code": "80205",
      "country": null,
      "full_address": null,
      "phone": null,
      "website": null,
      "email": null,
      "description": null,
      "image_url": null,
      "priority": 0,
      "filters": [],
      "custom_fields": [],
      "distance": 1856,
      "distance_units": "mi"
    },
    {
      "id": 30196079,
      "name": "The Ambrosian Pantry",
      "latitude": "39.72049599",
      "longitude": "-104.95879699",
      "address_line_1": "263 Josephine St",
      "address_line_2": null,
      "city": "Denver",
      "state": "CO",
      "postal_code": "80206",
      "country": null,
      "full_address": null,
      "phone": null,
      "website": null,
      "email": null,
      "description": null,
      "image_url": null,
      "priority": 0,
      "filters": [],
      "custom_fields": [],
      "distance": 1855,
      "distance_units": "mi"
    },
    {
      "id": 30199037,
      "name": "Bon Bon Market",
      "latitude": "31.09658401",
      "longitude": "-97.34153502",
      "address_line_1": "2 S Main St",
      "address_line_2": null,
      "city": "Temple",
      "state": "TX",
      "postal_code": "76501",
      "country": null,
      "full_address": null,
      "phone": "(254) 231-3233",
      "website": null,
      "email": null,
      "description": null,
      "image_url": null,
      "priority": 0,
      "filters": [],
      "custom_fields": [],
      "distance": 1810,
      "distance_units": "mi"
    },
    {
      "id": 28516692,
      "name": "Country Bird Bakery",
      "latitude": "36.15639601",
      "longitude": "-95.96753096",
      "address_line_1": "1644 E 3rd St",
      "address_line_2": "Unit B",
      "city": "Tulsa",
      "state": "OK",
      "postal_code": "74120",
      "country": null,
      "full_address": null,
      "phone": null,
      "website": "https://www.countrybirdbakery.com/",
      "email": null,
      "description": null,
      "image_url": null,
      "priority": 0,
      "filters": [],
      "custom_fields": [],
      "distance": 1537,
      "distance_units": "mi"
    },
    {
      "id": 88612807,
      "name": "Fariner Bakery",
      "latitude": "41.03967000",
      "longitude": "-96.36871500",
      "address_line_1": "120 North 14th Street",
      "address_line_2": null,
      "city": "Ashland",
      "state": "NE",
      "postal_code": "68003",
      "country": null,
      "full_address": null,
      "phone": null,
      "website": "https://www.farinerbakery.com/",
      "email": null,
      "description": null,
      "image_url": null,
      "priority": 0,
      "filters": [
        {
          "id": 28402,
          "name": "Limited-edition flavors",
          "position": 0
        }
      ],
      "custom_fields": [],
      "distance": 1403,
      "distance_units": "mi"
    },
    {
      "id": 88612782,
      "name": "Lau Lau",
      "latitude": "30.30206299",
      "longitude": "-97.73809904",
      "address_line_1": "3701 Guadalupe St",
      "address_line_2": "Ste 106",
      "city": "Austin",
      "state": "TX",
      "postal_code": "78705",
      "country": null,
      "full_address": null,
      "phone": null,
      "website": "https://www.laulauatx.com/",
      "email": null,
      "description": null,
      "image_url": null,
      "priority": 0,
      "filters": [],
      "custom_fields": [],
      "distance": 1864,
      "distance_units": "mi"
    },
    {
      "id": 12768970,
      "name": "Local Foods",
      "latitude": "29.71958098",
      "longitude": "-95.41640197",
      "address_line_1": "2424 Dunstan Rd",
      "address_line_2": "#125",
      "city": "Houston",
      "state": "TX",
      "postal_code": "77005",
      "country": "United States",
      "full_address": null,
      "phone": "(713) 522-7602",
      "website": "https://www.localfoodsmkt.com/",
      "email": null,
      "description": null,
      "image_url": "https://images.getbento.com/accounts/0c5b45b9150b7fa83ea68da940294155/media/images/47457LFMLogo_update.jpg",
      "priority": 0,
      "filters": [],
      "custom_fields": [],
      "distance": 1790,
      "distance_units": "mi"
    },
    {
      "id": 88618493,
      "name": "Parker and Scott",
      "latitude": "30.35478101",
      "longitude": "-97.72883000",
      "address_line_1": "2113 West Anderson Lane",
      "address_line_2": "Suite B",
      "city": "Austin",
      "state": "TX",
      "postal_code": "78757",
      "country": null,
      "full_address": null,
      "phone": null,
      "website": "http://parkerandscott.com/",
      "email": null,
      "description": null,
      "image_url": null,
      "priority": 0,
      "filters": [],
      "custom_fields": [],
      "distance": 1862,
      "distance_units": "mi"
    },
    {
      "id": 88617728,
      "name": "Rose Hip Market",
      "latitude": "29.47075501",
      "longitude": "-98.49288800",
      "address_line_1": "116 West Olmos",
      "address_line_2": null,
      "city": "San Antonio",
      "state": "TX",
      "postal_code": "78212",
      "country": null,
      "full_address": null,
      "phone": null,
      "website": "https://www.rosehipmarket.com/",
      "email": null,
      "description": null,
      "image_url": null,
      "priority": 0,
      "filters": [],
      "custom_fields": [],
      "distance": 1936,
      "distance_units": "mi"
    },
    {
      "id": 21703639,
      "name": "Thai Cafe",
      "latitude": "31.09684800",
      "longitude": "-97.34251898",
      "address_line_1": "109 W. Central Ave.",
      "address_line_2": null,
      "city": "Temple",
      "state": "TX",
      "postal_code": "76501",
      "country": null,
      "full_address": null,
      "phone": null,
      "website": "https://www.thaicafetemple.com/",
      "email": null,
      "description": null,
      "image_url": null,
      "priority": 0,
      "filters": [],
      "custom_fields": [],
      "distance": 1811,
      "distance_units": "mi"
    },
    {
      "id": 88617729,
      "name": "Tiny Grocer (Hyde Park)",
      "latitude": "30.30698698",
      "longitude": "-97.72994898",
      "address_line_1": "4300 Speedway",
      "address_line_2": "Suite 101",
      "city": "Austin",
      "state": "TX",
      "postal_code": "78751",
      "country": null,
      "full_address": null,
      "phone": null,
      "website": "https://tinygrocer.com/",
      "email": null,
      "description": null,
      "image_url": null,
      "priority": 0,
      "filters": [],
      "custom_fields": [],
      "distance": 1864,
      "distance_units": "mi"
    },
    {
      "id": 88612805,
      "name": "20 Shekels",
      "latitude": "27.96759701",
      "longitude": "-82.75959599",
      "address_line_1": "1881 Drew Street",
      "address_line_2": null,
      "city": "Clearwater",
      "state": "FL",
      "postal_code": "33765",
      "country": null,
      "full_address": null,
      "phone": null,
      "website": "https://www.20shekels.com/",
      "email": null,
      "description": null,
      "image_url": null,
      "priority": 0,
      "filters": [],
      "custom_fields": [],
      "distance": 1415,
      "distance_units": "mi"
    },
    {
      "id": 49050286,
      "name": "Andal√© Market (Andersonville)",
      "latitude": "41.97722401",
      "longitude": "-87.66870804",
      "address_line_1": "5232 N Clark St",
      "address_line_2": null,
      "city": "Chicago",
      "state": "IL",
      "postal_code": "60640",
      "country": null,
      "full_address": null,
      "phone": null,
      "website": "https://andalemarket.com/",
      "email": null,
      "description": null,
      "image_url": null,
      "priority": 0,
      "filters": [],
      "custom_fields": [],
      "distance": 959,
      "distance_units": "mi"
    },
    {
      "id": 88618667,
      "name": "Andal√© Market (Lincoln Park)",
      "latitude": "41.92891101",
      "longitude": "-87.64745396",
      "address_line_1": "725 W Wrightwood Ave",
      "address_line_2": null,
      "city": "Chicago",
      "state": "IL",
      "postal_code": "60614",
      "country": null,
      "full_address": null,
      "phone": null,
      "website": "https://andalemarket.com/",
      "email": null,
      "description": null,
      "image_url": null,
      "priority": 0,
      "filters": [],
      "custom_fields": [],
      "distance": 959,
      "distance_units": "mi"
    },
    {
      "id": 20959496,
      "name": "Black Dog Gelato",
      "latitude": "41.89761500",
      "longitude": "-87.67675600",
      "address_line_1": "859 N Damen Ave",
      "address_line_2": null,
      "city": "Chicago",
      "state": "IL",
      "postal_code": "60622",
      "country": null,
      "full_address": null,
      "phone": "(773) 235-3116",
      "website": "http://blackdoggelato.com",
      "email": null,
      "description": null,
      "image_url": null,
      "priority": 0,
      "filters": [],
      "custom_fields": [],
      "distance": 961,
      "distance_units": "mi"
    },
    {
      "id": 12816084,
      "name": "Culinary Architecture",
      "latitude": "39.28283898",
      "longitude": "-76.62787700",
      "address_line_1": "767 Washington Blvd",
      "address_line_2": null,
      "city": "Baltimore",
      "state": "MD",
      "postal_code": "21230",
      "country": null,
      "full_address": null,
      "phone": "(202) 460-3416",
      "website": null,
      "email": null,
      "description": null,
      "image_url": null,
      "priority": 0,
      "filters": [],
      "custom_fields": [],
      "distance": 569,
      "distance_units": "mi"
    },
    {
      "id": 49050289,
      "name": "Each Peach Market",
      "latitude": "38.92854809",
      "longitude": "-77.03752047",
      "address_line_1": "3068 Mt Pleasant St NW",
      "address_line_2": null,
      "city": "Washington",
      "state": "DC",
      "postal_code": "20009",
      "country": null,
      "full_address": null,
      "phone": "(202) 525-1725",
      "website": null,
      "email": null,
      "description": null,
      "image_url": null,
      "priority": 0,
      "filters": [],
      "custom_fields": [],
      "distance": 602,
      "distance_units": "mi"
    },
    {
      "id": 88617723,
      "name": "Evergreen Butcher + Baker",
      "latitude": "33.75095098",
      "longitude": "-84.32176498",
      "address_line_1": "2011 Hosea L Williams Dr",
      "address_line_2": null,
      "city": "Atlanta",
      "state": "GA",
      "postal_code": "30317",
      "country": null,
      "full_address": null,
      "phone": null,
      "website": "https://www.evergreenbutcherandbaker.com/",
      "email": null,
      "description": null,
      "image_url": null,
      "priority": 0,
      "filters": [],
      "custom_fields": [],
      "distance": 1138,
      "distance_units": "mi"
    },
    {
      "id": 18727576,
      "name": "France 44 Cheese Shop",
      "latitude": "44.92290801",
      "longitude": "-93.32878999",
      "address_line_1": "4351 France Avenue South",
      "address_line_2": null,
      "city": "Minneapolis",
      "state": "MN",
      "postal_code": "55410",
      "country": null,
      "full_address": null,
      "phone": "612-422-7788",
      "website": "http://www.france44cheeseshop.com/",
      "email": null,
      "description": null,
      "image_url": null,
      "priority": 0,
      "filters": [],
      "custom_fields": [],
      "distance": 1182,
      "distance_units": "mi"
    },
    {
      "id": 17744534,
      "name": "HEX Superette",
      "latitude": "39.35995601",
      "longitude": "-76.61032202",
      "address_line_1": "5718 York Rd",
      "address_line_2": null,
      "city": "Baltimore",
      "state": "MD",
      "postal_code": "21212",
      "country": null,
      "full_address": null,
      "phone": null,
      "website": null,
      "email": null,
      "description": null,
      "image_url": null,
      "priority": 0,
      "filters": [],
      "custom_fields": [],
      "distance": 565,
      "distance_units": "mi"
    },
    {
      "id": 30199036,
      "name": "Kinda Collected",
      "latitude": "36.18890501",
      "longitude": "-86.73781001",
      "address_line_1": "1101 Chapel Ave ",
      "address_line_2": "#115",
      "city": "Nashville",
      "state": "TN",
      "postal_code": "37206",
      "country": null,
      "full_address": null,
      "phone": "(714) 747-4487",
      "website": "https://kindacollected.com/",
      "email": null,
      "description": null,
      "image_url": null,
      "priority": 0,
      "filters": [],
      "custom_fields": [],
      "distance": 1118,
      "distance_units": "mi"
    },
    {
      "id": 25685675,
      "name": "Kruse Markit",
      "latitude": "44.92565199",
      "longitude": "-93.27768502",
      "address_line_1": "4237 Nicollet Ave",
      "address_line_2": null,
      "city": "Minneapolis",
      "state": "MN",
      "postal_code": "55409",
      "country": null,
      "full_address": null,
      "phone": "(612) 259-8516",
      "website": "http://krusemarkit.com",
      "email": null,
      "description": null,
      "image_url": null,
      "priority": 0,
      "filters": [],
      "custom_fields": [],
      "distance": 1180,
      "distance_units": "mi"
    },
    {
      "id": 49050285,
      "name": "Littleton's Market",
      "latitude": "40.01433002",
      "longitude": "-83.06860801",
      "address_line_1": "2140 Tremont Ctr",
      "address_line_2": null,
      "city": "Upper Arlington",
      "state": "OH",
      "postal_code": "43221",
      "country": null,
      "full_address": null,
      "phone": null,
      "website": null,
      "email": null,
      "description": null,
      "image_url": null,
      "priority": 0,
      "filters": [],
      "custom_fields": [],
      "distance": 801,
      "distance_units": "mi"
    },
    {
      "id": 88612813,
      "name": "Martha's Vineyard Fine Wine & Gourmet Grocery",
      "latitude": "42.96757701",
      "longitude": "-85.65425599",
      "address_line_1": "200 Union Avenue Northeast",
      "address_line_2": null,
      "city": "Grand Rapids",
      "state": "MI",
      "postal_code": "49503",
      "country": null,
      "full_address": null,
      "phone": null,
      "website": "https://www.mvwines.com/",
      "email": null,
      "description": null,
      "image_url": null,
      "priority": 0,
      "filters": [],
      "custom_fields": [],
      "distance": 840,
      "distance_units": "mi"
    },
    {
      "id": 49050317,
      "name": "Odd Bird",
      "latitude": "37.54699499",
      "longitude": "-77.44274299",
      "address_line_1": "320 Brook Rd",
      "address_line_2": null,
      "city": "Richmond",
      "state": "VA",
      "postal_code": "23220",
      "country": null,
      "full_address": null,
      "phone": null,
      "website": null,
      "email": null,
      "description": null,
      "image_url": null,
      "priority": 0,
      "filters": [],
      "custom_fields": [],
      "distance": 691,
      "distance_units": "mi"
    },
    {
      "id": 15837300,
      "name": "Rice Market",
      "latitude": "38.91150500",
      "longitude": "-77.03235800",
      "address_line_1": "1608 14th St NW",
      "address_line_2": null,
      "city": "Washington",
      "state": "DC",
      "postal_code": "20009",
      "country": "United States",
      "full_address": null,
      "phone": "(202) 234-2737",
      "website": null,
      "email": null,
      "description": null,
      "image_url": null,
      "priority": 0,
      "filters": [
        {
          "id": 28402,
          "name": "Limited-edition flavors",
          "position": 0
        }
      ],
      "custom_fields": [],
      "distance": 603,
      "distance_units": "mi"
    },
    {
      "id": 88617721,
      "name": "Roze Pony",
      "latitude": "36.10354300",
      "longitude": "-86.86872696",
      "address_line_1": "5133 Harding Pike",
      "address_line_2": null,
      "city": "Nashville",
      "state": "TN",
      "postal_code": "37205",
      "country": null,
      "full_address": null,
      "phone": null,
      "website": "https://www.rozepony.com/",
      "email": null,
      "description": null,
      "image_url": null,
      "priority": 0,
      "filters": [],
      "custom_fields": [],
      "distance": 1127,
      "distance_units": "mi"
    },
    {
      "id": 25685678,
      "name": "Salt & Vinegar",
      "latitude": "39.93917800",
      "longitude": "-75.15801104",
      "address_line_1": "905 Christian St",
      "address_line_2": null,
      "city": "Philadelphia",
      "state": "PA",
      "postal_code": "19147",
      "country": null,
      "full_address": null,
      "phone": "(267) 424-2229",
      "website": "https://www.instagram.com/saltandvinegarphl/",
      "email": null,
      "description": null,
      "image_url": null,
      "priority": 0,
      "filters": [],
      "custom_fields": [],
      "distance": 485,
      "distance_units": "mi"
    },
    {
      "id": 49353665,
      "name": "Shift Coffee Bar",
      "latitude": "26.63663687",
      "longitude": "-81.87840249",
      "address_line_1": "2250 McGregor Blvd",
      "address_line_2": null,
      "city": "Fort Myers",
      "state": "FL",
      "postal_code": "33901",
      "country": null,
      "full_address": null,
      "phone": null,
      "website": null,
      "email": null,
      "description": null,
      "image_url": null,
      "priority": 0,
      "filters": [],
      "custom_fields": [],
      "distance": 1473,
      "distance_units": "mi"
    },
    {
      "id": 49050311,
      "name": "Triangle Wine Company",
      "latitude": "35.73747536",
      "longitude": "-78.77746686",
      "address_line_1": "575 New Waverly Place",
      "address_line_2": null,
      "city": "Cary",
      "state": "NC",
      "postal_code": "27518",
      "country": null,
      "full_address": null,
      "phone": null,
      "website": null,
      "email": null,
      "description": null,
      "image_url": null,
      "priority": 0,
      "filters": [],
      "custom_fields": [],
      "distance": 835,
      "distance_units": "mi"
    },
    {
      "id": 88612812,
      "name": "Westborn Market (Livonia)",
      "latitude": "42.39477099",
      "longitude": "-83.33509604",
      "address_line_1": "14925 Middlebelt Road",
      "address_line_2": null,
      "city": "Livonia",
      "state": "MI",
      "postal_code": "48154",
      "country": null,
      "full_address": null,
      "phone": null,
      "website": "https://westbornmarket.com/",
      "email": null,
      "description": null,
      "image_url": null,
      "priority": 0,
      "filters": [],
      "custom_fields": [],
      "distance": 741,
      "distance_units": "mi"
    },
    {
      "id": 12768973,
      "name": "Wildlove Bake House",
      "latitude": "35.98516899",
      "longitude": "-83.93471501",
      "address_line_1": "1625 N Central St",
      "address_line_2": "",
      "city": "Knoxville",
      "state": "TN",
      "postal_code": "37917",
      "country": "United States",
      "full_address": null,
      "phone": "(865) 200-8078",
      "website": "http://www.wildlovebakehouse.com/",
      "email": "",
      "description": null,
      "image_url": "",
      "priority": 0,
      "filters": [],
      "custom_fields": [],
      "distance": 1011,
      "distance_units": "mi"
    },
    {
      "id": 88612788,
      "name": "Yee Mama",
      "latitude": "39.11437199",
      "longitude": "-84.51998500",
      "address_line_1": "1719 Elm Street",
      "address_line_2": null,
      "city": "Cincinnati",
      "state": "OH",
      "postal_code": "45202",
      "country": null,
      "full_address": null,
      "phone": null,
      "website": "https://www.yeemama.com/",
      "email": null,
      "description": null,
      "image_url": null,
      "priority": 0,
      "filters": [],
      "custom_fields": [],
      "distance": 900,
      "distance_units": "mi"
    },
    {
      "id": 88612809,
      "name": "Avon Prime Meats",
      "latitude": "41.81565499",
      "longitude": "-72.86543504",
      "address_line_1": "395 West Main St",
      "address_line_2": "Rt 44",
      "city": "Avon",
      "state": "CT",
      "postal_code": "06001",
      "country": null,
      "full_address": null,
      "phone": null,
      "website": "https://avonprimemeats.com/",
      "email": null,
      "description": null,
      "image_url": null,
      "priority": 0,
      "filters": [],
      "custom_fields": [],
      "distance": 309,
      "distance_units": "mi"
    },
    {
      "id": 18727579,
      "name": "Big Night",
      "latitude": "40.73036069",
      "longitude": "-73.95759352",
      "address_line_1": "154 Franklin Street",
      "address_line_2": null,
      "city": "Greenpoint",
      "state": "NY",
      "postal_code": "11222",
      "country": null,
      "full_address": null,
      "phone": "512-909-1507",
      "website": "http://bignightbk.com/",
      "email": null,
      "description": null,
      "image_url": null,
      "priority": 0,
      "filters": [],
      "custom_fields": [],
      "distance": 403,
      "distance_units": "mi"
    },
    {
      "id": 49050313,
      "name": "Cafe Mornings",
      "latitude": "42.14730226",
      "longitude": "-74.62028010",
      "address_line_1": "43270 Rt. 28",
      "address_line_2": null,
      "city": "Arkville",
      "state": "NY",
      "postal_code": "12406",
      "country": null,
      "full_address": null,
      "phone": null,
      "website": null,
      "email": null,
      "description": null,
      "image_url": null,
      "priority": 0,
      "filters": [],
      "custom_fields": [],
      "distance": 355,
      "distance_units": "mi"
    },
    {
      "id": 17744533,
      "name": "Ceremony Cafe & Market",
      "latitude": "41.82859501",
      "longitude": "-71.39971703",
      "address_line_1": "406 Brook St",
      "address_line_2": null,
      "city": "Providence",
      "state": "RI",
      "postal_code": "02906",
      "country": null,
      "full_address": null,
      "phone": null,
      "website": "http://ceremonypvd.com",
      "email": null,
      "description": null,
      "image_url": null,
      "priority": 0,
      "filters": [],
      "custom_fields": [],
      "distance": 268,
      "distance_units": "mi"
    },
    {
      "id": 49353666,
      "name": "Chop Suey Club",
      "latitude": "40.71619970",
      "longitude": "-73.99134148",
      "address_line_1": "41 Orchard Street  ",
      "address_line_2": "Storefront",
      "city": "New York",
      "state": "NY",
      "postal_code": "10002",
      "country": null,
      "full_address": null,
      "phone": null,
      "website": null,
      "email": null,
      "description": null,
      "image_url": null,
      "priority": 0,
      "filters": [],
      "custom_fields": [],
      "distance": 405,
      "distance_units": "mi"
    },
    {
      "id": 28516690,
      "name": "Christina's Spice & Specialty Foods",
      "latitude": "42.37373820",
      "longitude": "-71.09936393",
      "address_line_1": "1297 Cambridge St",
      "address_line_2": null,
      "city": "Cambridge",
      "state": "MA",
      "postal_code": "02139",
      "country": null,
      "full_address": null,
      "phone": "(617) 576-2090",
      "website": "https://www.christinasspice.org/",
      "email": null,
      "description": null,
      "image_url": null,
      "priority": 0,
      "filters": [],
      "custom_fields": [],
      "distance": 228,
      "distance_units": "mi"
    },
    {
      "id": 49050310,
      "name": "Dave's Fresh Pasta ",
      "latitude": "42.39880424",
      "longitude": "-71.12415090",
      "address_line_1": "81 Holland St",
      "address_line_2": null,
      "city": "Somerville",
      "state": "MA",
      "postal_code": "02144",
      "country": null,
      "full_address": null,
      "phone": "(617) 623-0867",
      "website": null,
      "email": null,
      "description": null,
      "image_url": null,
      "priority": 0,
      "filters": [],
      "custom_fields": [],
      "distance": 227,
      "distance_units": "mi"
    },
    {
      "id": 20959974,
      "name": "Foster Sundry",
      "latitude": "40.70340682",
      "longitude": "-73.92617562",
      "address_line_1": "215 Knickerbocker Ave",
      "address_line_2": null,
      "city": "Brooklyn",
      "state": "NY",
      "postal_code": "11237",
      "country": null,
      "full_address": null,
      "phone": "(718) 569-8426",
      "website": "https://foster-sundry.square.site/?owg-fulfillment=pickup&location=11ed28b3c20ccb5ca841ac1f6bbba82c&rwg_token=ADQ7psSnx8gVpf9J30lbkW9yssJviqoxH3y9IkH1jFB5Au8mdRuabnMPTm1SDypSvcvxf538ZziH76uxEgFW34AlQrCfkhdZcFC-YbpeVTTtcF0YzTIS08Y%3D",
      "email": null,
      "description": null,
      "image_url": null,
      "priority": 0,
      "filters": [],
      "custom_fields": [],
      "distance": 403,
      "distance_units": "mi"
    },
    {
      "id": 12768975,
      "name": "GOODS",
      "latitude": "44.20914369",
      "longitude": "-69.06587650",
      "address_line_1": "31 Elm St",
      "address_line_2": null,
      "city": "Camden",
      "state": "ME",
      "postal_code": "04843",
      "country": "United States",
      "full_address": null,
      "phone": "(207) 230-8010",
      "website": "http://goodsmaine.com/",
      "email": "",
      "description": null,
      "image_url": "https://images.squarespace-cdn.com/content/v1/624f0c3915aed55907b0ac33/e47ca2e3-a376-453b-9823-43a9ff178b43/Asset+3_smallish.png?format=1500w",
      "priority": 0,
      "filters": [],
      "custom_fields": [],
      "distance": 75,
      "distance_units": "mi"
    },
    {
      "id": 49353672,
      "name": "Grapes & Gourmet",
      "latitude": "41.49561402",
      "longitude": "-71.36687204",
      "address_line_1": "9 E Ferry Wharf",
      "address_line_2": null,
      "city": "Jamestown",
      "state": "RI",
      "postal_code": "02835",
      "country": null,
      "full_address": null,
      "phone": null,
      "website": null,
      "email": null,
      "description": null,
      "image_url": null,
      "priority": 0,
      "filters": [],
      "custom_fields": [],
      "distance": 288,
      "distance_units": "mi"
    },
    {
      "id": 17744541,
      "name": "Grass Roots Juicery",
      "latitude": "40.71423529",
      "longitude": "-73.94425768",
      "address_line_1": "336A Graham Ave",
      "address_line_2": null,
      "city": "Brooklyn",
      "state": "NY",
      "postal_code": "11211",
      "country": null,
      "full_address": null,
      "phone": null,
      "website": null,
      "email": null,
      "description": null,
      "image_url": null,
      "priority": 0,
      "filters": [],
      "custom_fields": [],
      "distance": 403,
      "distance_units": "mi"
    },
    {
      "id": 88618489,
      "name": "Greene Grape Provisions",
      "latitude": "40.68626998",
      "longitude": "-73.97396973",
      "address_line_1": "767 Fulton St",
      "address_line_2": null,
      "city": "Brooklyn",
      "state": "NY",
      "postal_code": "11217",
      "country": null,
      "full_address": null,
      "phone": null,
      "website": "https://greenegrape.com/",
      "email": null,
      "description": null,
      "image_url": null,
      "priority": 0,
      "filters": [],
      "custom_fields": [],
      "distance": 406,
      "distance_units": "mi"
    },
    {
      "id": 15837301,
      "name": "Immuneschein Ginger Elixirs & Teas",
      "latitude": "42.04326888",
      "longitude": "-74.07712137",
      "address_line_1": "1776 Rt 212",
      "address_line_2": null,
      "city": "Saugerties",
      "state": "NY",
      "postal_code": "12477",
      "country": "United States",
      "full_address": null,
      "phone": null,
      "website": "http://www.immune-schein.com/",
      "email": null,
      "description": null,
      "image_url": null,
      "priority": 0,
      "filters": [],
      "custom_fields": [],
      "distance": 339,
      "distance_units": "mi"
    },
    {
      "id": 17744536,
      "name": "Joppa Fine Foods",
      "latitude": "42.81063384",
      "longitude": "-70.86617042",
      "address_line_1": "50 Water St #305",
      "address_line_2": null,
      "city": "Newburyport",
      "state": "MA",
      "postal_code": "01950",
      "country": null,
      "full_address": null,
      "phone": "(978) 462-4662",
      "website": "http://joppa-fine-foods.square.site",
      "email": null,
      "description": null,
      "image_url": null,
      "priority": 0,
      "filters": [],
      "custom_fields": [],
      "distance": 195,
      "distance_units": "mi"
    },
    {
      "id": 49353679,
      "name": "Kinka",
      "latitude": "40.72758866",
      "longitude": "-73.98692103",
      "address_line_1": "63 East 7th Street",
      "address_line_2": "Store East",
      "city": "New York",
      "state": "NY",
      "postal_code": "10003",
      "country": null,
      "full_address": null,
      "phone": null,
      "website": null,
      "email": null,
      "description": null,
      "image_url": null,
      "priority": 0,
      "filters": [],
      "custom_fields": [],
      "distance": 404,
      "distance_units": "mi"
    },
    {
      "id": 25685681,
      "name": "Kitty's Market ",
      "latitude": "42.25405296",
      "longitude": "-73.79736496",
      "address_line_1": "60 S Front St",
      "address_line_2": null,
      "city": "Hudson",
      "state": "NY",
      "postal_code": "12534",
      "country": null,
      "full_address": null,
      "phone": "(518) 267-6369",
      "website": "http://kittyshudson.com",
      "email": null,
      "description": null,
      "image_url": null,
      "priority": 0,
      "filters": [],
      "custom_fields": [],
      "distance": 319,
      "distance_units": "mi"
    },
    {
      "id": 19812688,
      "name": "La Mer Seafood",
      "latitude": "41.12611647",
      "longitude": "-73.71431203",
      "address_line_1": "407 Main St",
      "address_line_2": "#1846",
      "city": "Armonk",
      "state": "NY",
      "postal_code": "10504",
      "country": null,
      "full_address": null,
      "phone": "(914) 273-1766",
      "website": "http://lamernewyork.com",
      "email": null,
      "description": null,
      "image_url": null,
      "priority": 0,
      "filters": [],
      "custom_fields": [],
      "distance": 373,
      "distance_units": "mi"
    },
    {
      "id": 21703654,
      "name": "LB Kitchen",
      "latitude": "43.66255124",
      "longitude": "-70.25217338",
      "address_line_1": "255 Congress St",
      "address_line_2": null,
      "city": "Portland",
      "state": "ME",
      "postal_code": "04101",
      "country": null,
      "full_address": null,
      "phone": "(207) 775-2695",
      "website": "http://lbkitchenportlandme.com",
      "email": null,
      "description": null,
      "image_url": null,
      "priority": 0,
      "filters": [],
      "custom_fields": [],
      "distance": 129,
      "distance_units": "mi"
    },
    {
      "id": 30197680,
      "name": "Magpie Industries",
      "latitude": "42.39601625",
      "longitude": "-71.12157003",
      "address_line_1": "416 Highland Ave",
      "address_line_2": null,
      "city": "Somerville",
      "state": "MA",
      "postal_code": "02144",
      "country": null,
      "full_address": null,
      "phone": null,
      "website": "https://magpie-store.com/",
      "email": null,
      "description": null,
      "image_url": null,
      "priority": 0,
      "filters": [],
      "custom_fields": [],
      "distance": 227,
      "distance_units": "mi"
    },
    {
      "id": 49353668,
      "name": "Mei Mei Dumplings",
      "latitude": "42.33635814",
      "longitude": "-71.05556463",
      "address_line_1": "58 Old Colony Ave",
      "address_line_2": null,
      "city": "Boston",
      "state": "MA",
      "postal_code": "02127",
      "country": null,
      "full_address": null,
      "phone": null,
      "website": null,
      "email": null,
      "description": null,
      "image_url": null,
      "priority": 0,
      "filters": [],
      "custom_fields": [],
      "distance": 229,
      "distance_units": "mi"
    },
    {
      "id": 49353667,
      "name": "Mel The Bakery",
      "latitude": "42.25248613",
      "longitude": "-73.79031645",
      "address_line_1": "324 Warren Street",
      "address_line_2": null,
      "city": "Hudson",
      "state": "NY",
      "postal_code": "12534",
      "country": null,
      "full_address": null,
      "phone": null,
      "website": null,
      "email": null,
      "description": null,
      "image_url": null,
      "priority": 0,
      "filters": [],
      "custom_fields": [],
      "distance": 318,
      "distance_units": "mi"
    },
    {
      "id": 88617730,
      "name": "Morningbird",
      "latitude": "42.39444167",
      "longitude": "-73.69854743",
      "address_line_1": "8 Hudson Street",
      "address_line_2": null,
      "city": "Kinderhook",
      "state": "NY",
      "postal_code": "12106",
      "country": null,
      "full_address": null,
      "phone": null,
      "website": "https://www.theaviarykinderhook.com/",
      "email": null,
      "description": null,
      "image_url": null,
      "priority": 0,
      "filters": [
        {
          "id": 28402,
          "name": "Limited-edition flavors",
          "position": 0
        }
      ],
      "custom_fields": [],
      "distance": 308,
      "distance_units": "mi"
    },
    {
      "id": 88618488,
      "name": "Myrtle Wombat",
      "latitude": "40.69415366",
      "longitude": "-73.96088768",
      "address_line_1": "581 Myrtle Avenue",
      "address_line_2": null,
      "city": "Brooklyn",
      "state": "NY",
      "postal_code": "11205",
      "country": null,
      "full_address": null,
      "phone": null,
      "website": "https://myrtlewombat.com/",
      "email": null,
      "description": null,
      "image_url": null,
      "priority": 0,
      "filters": [
        {
          "id": 28402,
          "name": "Limited-edition flavors",
          "position": 0
        }
      ],
      "custom_fields": [],
      "distance": 405,
      "distance_units": "mi"
    },
    {
      "id": 28516686,
      "name": "OK Pantry",
      "latitude": "42.39486768",
      "longitude": "-73.69831190",
      "address_line_1": "2 Hudson St",
      "address_line_2": null,
      "city": "Kinderhook",
      "state": "NY",
      "postal_code": "12106",
      "country": null,
      "full_address": null,
      "phone": "(518) 610-8041",
      "website": "https://www.okpantry.com/",
      "email": null,
      "description": null,
      "image_url": null,
      "priority": 0,
      "filters": [],
      "custom_fields": [],
      "distance": 308,
      "distance_units": "mi"
    },
    {
      "id": 12768972,
      "name": "Onggi",
      "latitude": "43.66762370",
      "longitude": "-70.25310120",
      "address_line_1": "131 Washington Ave",
      "address_line_2": null,
      "city": "Portland",
      "state": "ME",
      "postal_code": "04101",
      "country": "United States",
      "full_address": null,
      "phone": "(207) 352-3528",
      "website": "https://onggi.com/",
      "email": "",
      "description": null,
      "image_url": null,
      "priority": 0,
      "filters": [
        {
          "id": 28402,
          "name": "Limited-edition flavors",
          "position": 0
        }
      ],
      "custom_fields": [],
      "distance": 129,
      "distance_units": "mi"
    },
    {
      "id": 20959977,
      "name": "Pearl River Mart",
      "latitude": "40.72047472",
      "longitude": "-74.00079551",
      "address_line_1": "452 Broadway",
      "address_line_2": null,
      "city": "New York",
      "state": "NY",
      "postal_code": "10013",
      "country": null,
      "full_address": null,
      "phone": "(800)878-2446",
      "website": "http://www.pearlriver.com/",
      "email": null,
      "description": null,
      "image_url": null,
      "priority": 0,
      "filters": [
        {
          "id": 28402,
          "name": "Limited-edition flavors",
          "position": 0
        }
      ],
      "custom_fields": [],
      "distance": 405,
      "distance_units": "mi"
    },
    {
      "id": 20959976,
      "name": "Pearl River Mart (Chelsea Market)",
      "latitude": "40.74223058",
      "longitude": "-74.00466560",
      "address_line_1": "75 9th Ave",
      "address_line_2": null,
      "city": "New York",
      "state": "NY",
      "postal_code": "10011",
      "country": null,
      "full_address": null,
      "phone": "(646)760-0453",
      "website": "http://pearlriver.com/",
      "email": null,
      "description": null,
      "image_url": null,
      "priority": 0,
      "filters": [],
      "custom_fields": [],
      "distance": 404,
      "distance_units": "mi"
    },
    {
      "id": 13595861,
      "name": "Queen of Hearts",
      "latitude": "41.82290500",
      "longitude": "-71.41231000",
      "address_line_1": "222 Westminster Street",
      "address_line_2": null,
      "city": "Providence",
      "state": "RI",
      "postal_code": "02903",
      "country": null,
      "full_address": null,
      "phone": null,
      "website": "https://shopqueenofhearts.com/",
      "email": null,
      "description": null,
      "image_url": null,
      "priority": 0,
      "filters": [],
      "custom_fields": [],
      "distance": 269,
      "distance_units": "mi"
    },
    {
      "id": 30196078,
      "name": "Reclamation Street",
      "latitude": "41.75364102",
      "longitude": "-72.76842499",
      "address_line_1": "1263 Farmington Ave",
      "address_line_2": null,
      "city": "West Hartford",
      "state": "CT",
      "postal_code": "06107",
      "country": null,
      "full_address": null,
      "phone": "(415) 926-3985",
      "website": null,
      "email": null,
      "description": null,
      "image_url": null,
      "priority": 0,
      "filters": [],
      "custom_fields": [],
      "distance": 309,
      "distance_units": "mi"
    },
    {
      "id": 88612786,
      "name": "Russ & Mimi's",
      "latitude": "42.28683630",
      "longitude": "-71.12987121",
      "address_line_1": "16 BIRCH ST",
      "address_line_2": null,
      "city": "ROSLINDALE",
      "state": "MA",
      "postal_code": "02131",
      "country": null,
      "full_address": null,
      "phone": null,
      "website": "https://www.russandmimis.com/",
      "email": null,
      "description": null,
      "image_url": null,
      "priority": 0,
      "filters": [],
      "custom_fields": [],
      "distance": 234,
      "distance_units": "mi"
    },
    {
      "id": 88617722,
      "name": "Stock Culinary Goods",
      "latitude": "41.84757948",
      "longitude": "-71.39592338",
      "address_line_1": "756 Hope Street",
      "address_line_2": null,
      "city": "Providence",
      "state": "RI",
      "postal_code": "02906",
      "country": null,
      "full_address": null,
      "phone": null,
      "website": "https://www.stockculinarygoods.com/",
      "email": null,
      "description": null,
      "image_url": null,
      "priority": 0,
      "filters": [],
      "custom_fields": [],
      "distance": 267,
      "distance_units": "mi"
    },
    {
      "id": 17744532,
      "name": "The Alna Store",
      "latitude": "44.10001869",
      "longitude": "-69.61447475",
      "address_line_1": "2 Dock Rd",
      "address_line_2": null,
      "city": "Alna",
      "state": "ME",
      "postal_code": "04535",
      "country": null,
      "full_address": null,
      "phone": null,
      "website": null,
      "email": null,
      "description": null,
      "image_url": null,
      "priority": 0,
      "filters": [],
      "custom_fields": [],
      "distance": 88,
      "distance_units": "mi"
    },
    {
      "id": 88612795,
      "name": "The Hive (Hoboken)",
      "latitude": "40.74916699",
      "longitude": "-74.03038799",
      "address_line_1": "1000 Park Ave.",
      "address_line_2": null,
      "city": "Hoboken",
      "state": "NJ",
      "postal_code": "07030",
      "country": null,
      "full_address": null,
      "phone": null,
      "website": "https://www.thehivemarket.com/",
      "email": null,
      "description": null,
      "image_url": null,
      "priority": 0,
      "filters": [],
      "custom_fields": [],
      "distance": 404,
      "distance_units": "mi"
    },
    {
      "id": 88612798,
      "name": "The Hive (Jersey City)",
      "latitude": "40.72507002",
      "longitude": "-74.04564003",
      "address_line_1": "615 Jersey Ave.",
      "address_line_2": null,
      "city": "Jersey City",
      "state": "NJ",
      "postal_code": "07302",
      "country": null,
      "full_address": null,
      "phone": null,
      "website": "https://www.thehivemarket.com/",
      "email": null,
      "description": null,
      "image_url": null,
      "priority": 0,
      "filters": [],
      "custom_fields": [],
      "distance": 406,
      "distance_units": "mi"
    },
    {
      "id": 13595864,
      "name": "The Mushroom Shop",
      "latitude": "42.28926730",
      "longitude": "-71.13580124",
      "address_line_1": "433 Medford St.",
      "address_line_2": null,
      "city": "Somerville",
      "state": "MA",
      "postal_code": "02145",
      "country": "USA",
      "full_address": null,
      "phone": null,
      "website": null,
      "email": null,
      "description": null,
      "image_url": null,
      "priority": 0,
      "filters": [],
      "custom_fields": [],
      "distance": 234,
      "distance_units": "mi"
    },
    {
      "id": 88617731,
      "name": "Wild Child",
      "latitude": "42.38116230",
      "longitude": "-71.09754749",
      "address_line_1": "30 Bow Street",
      "address_line_2": null,
      "city": "Somerville",
      "state": "MA",
      "postal_code": "02134",
      "country": null,
      "full_address": null,
      "phone": null,
      "website": "https://www.wildchildsomerville.com/",
      "email": null,
      "description": null,
      "image_url": null,
      "priority": 0,
      "filters": [],
      "custom_fields": [],
      "distance": 227,
      "distance_units": "mi"
    },
    {
      "id": 18727574,
      "name": "Yagi Noodles",
      "latitude": "41.48962830",
      "longitude": "-71.31575116",
      "address_line_1": "20 Long Wharf Mall",
      "address_line_2": null,
      "city": "Newport",
      "state": "RI",
      "postal_code": "02940",
      "country": null,
      "full_address": null,
      "phone": "603-674-1819",
      "website": "http://www.yaginoodles.com/",
      "email": null,
      "description": null,
      "image_url": null,
      "priority": 0,
      "filters": [],
      "custom_fields": [],
      "distance": 288,
      "distance_units": "mi"
    },
    {
      "id": 49050318,
      "name": "Common Ground",
      "latitude": "21.30938000",
      "longitude": "-157.85991397",
      "address_line_1": "1111 Bishop Street",
      "address_line_2": null,
      "city": "Honolulu",
      "state": "HI",
      "postal_code": "96813",
      "country": null,
      "full_address": null,
      "phone": null,
      "website": null,
      "email": null,
      "description": null,
      "image_url": null,
      "priority": 0,
      "filters": [],
      "custom_fields": [],
      "distance": 3.9,
      "distance_units": "mi"
    }
  ]
}